floor,area_unit,total_floors,area,price,offer_type,address,borough,property_use,longitude,build_year,latitude,distance,already_taken,competitors,foot_traffic
10,SQUARE_FOOT,12,17607,0,RENT,"145 W 45th St, New York, New York",Manhattan,Office,-73.984326,1920,40.75767,0.067062897,1,2,2008
21,SQUARE_FOOT,40,512305,0,RENT,"825 Third Ave, New York, New York",Manhattan,Office,-73.970083,1969,40.755892,0.821810443,1,0,2312
13,SQUARE_FOOT,40,6500,0,RENT,"825 3rd Ave, New York, New York",Manhattan,Office,-73.970083,1969,40.755892,0.821810443,1,3,2312
85,SQUARE_FOOT,104,325155,0,RENT,"One World Trade Center, New York, New York",Manhattan,Office,-74.013153,2014,40.712944,3.430724762,1,0,2126
10,SQUARE_FOOT,12,7348,0,RENT,"27 W 20th St, New York, New York",Manhattan,Office,-73.992689,1908,40.740629,1.255493843,1,1,2870
8,SQUARE_FOOT,51,331992,0,RENT,"277 Park Ave, New York, New York",Manhattan,Office,-73.974297,1964,40.755317,0.616547456,1,1,2258
5,SQUARE_FOOT,29,104490,0,RENT,"875 Third Ave, New York, New York",Manhattan,Office,-73.969122,1982,40.757194,0.86109258,1,2,2312
14,SQUARE_FOOT,29,2713,0,RENT,"875 Third Ave, New York, New York",Manhattan,Office,-73.969122,1982,40.757194,0.86109258,1,3,2312
9,SQUARE_FOOT,11,54999,0,RENT,"57 E 11th St, New York, New York",Manhattan,Office,-73.992349,1903,40.733096,1.755490454,1,3,936
17,SQUARE_FOOT,19,29621,155510,RENT,"270 Madison Ave, New York, New York",Manhattan,Office,-73.980853,1923,40.751272,0.524136069,0,3,2449
18,SQUARE_FOOT,19,90000,0,RENT,"71 W 23rd St, New York, New York",Manhattan,Office,-73.992293,1912,40.742982,1.094498016,1,2,4971
17,SQUARE_FOOT,24,562109,0,RENT,"135 W 50th St, New York, New York",Manhattan,Office,-73.982111,1964,40.76103,0.277159867,1,2,2990
6,SQUARE_FOOT,17,39552,181280,RENT,"192 Lexington Ave, New York, New York",Manhattan,Office,-73.981048,1927,40.745079,0.921542121,0,2,3525
43,SQUARE_FOOT,77,110896,0,RENT,"405 Lexington Ave, New York, New York",Manhattan,Coworking,-73.975371,1929,40.751619,0.69011622,1,3,3525
1,SQUARE_FOOT,18,27084,0,RENT,"132 W 31st St, New York, New York",Manhattan,Coworking,-73.99076,1925,40.748161,0.730986425,1,2,4971
1,SQUARE_FOOT,10,849388,0,RENT,"850 3rd Ave, Brooklyn, New York",Brooklyn,Industrial,-74.004404,1920,40.65934,6.886234998,1,0,1693
1,SQUARE_FOOT,8,171313,499663,RENT,"1441 South Ave, Staten Island, New York",Staten Island,Office,-74.180717,2020,40.604457,14.73402102,0,1,63
1,SQUARE_FOOT,7,384952,0,RENT,"14 53rd St, Brooklyn, New York",Brooklyn,Office,-74.023618,1918,40.649835,7.733327906,1,3,1693
18,SQUARE_FOOT,40,201849,0,RENT,"575 Fifth Ave, New York, New York",Manhattan,Office,-73.978447,1984,40.756469,0.385659797,1,0,2008
12,SQUARE_FOOT,13,4250,0,RENT,"145 E 57th St, New York, New York",Manhattan,Office,-73.968485,1926,40.760916,0.915554564,1,0,3053
15,SQUARE_FOOT,16,9721,0,RENT,"1133 Broadway, New York, New York",Manhattan,Office,-73.989212,1896,40.743722,1.003322572,1,1,4971
2,SQUARE_FOOT,25,15414,0,RENT,"1001 6th Ave, New York, New York",Manhattan,Office,-73.986606,1926,40.751963,0.419081194,1,1,5284
19,SQUARE_FOOT,27,5257,0,RENT,"101 Greenwich St, New York, New York",Manhattan,Office,-74.013268,1909,40.70819,3.733538873,1,3,1025
20,SQUARE_FOOT,27,153267,0,RENT,"101 Greenwich St, New York, New York",Manhattan,Office,-74.013268,1909,40.70819,3.733538873,1,2,1025
8,SQUARE_FOOT,11,28716,0,RENT,"210-218 Eleventh Ave, New York, New York",Manhattan,Office,-74.005934,1911,40.749854,1.205779201,1,2,1655
5,SQUARE_FOOT,25,8711,0,RENT,"1001 6th Ave, New York, New York",Manhattan,Office,-73.986606,1926,40.751963,0.419081194,1,0,5284
14,SQUARE_FOOT,22,255766,0,RENT,"124 E 14th St, New York, New York",Manhattan,Office,-73.988781,2021,40.733693,1.686248058,1,1,2870
6,SQUARE_FOOT,8,36000,195000,RENT,"495 Broadway, New York, New York",Manhattan,Office,-74.000088,1893,40.722252,2.582992261,0,1,1043
2,SQUARE_FOOT,4,9300,23250,RENT,"39-41 Wooster St, New York, New York",Manhattan,Office,-74.002766,1900,40.722605,2.604841741,0,3,2126
2,SQUARE_FOOT,10,2532,0,RENT,"380 Second Ave, New York, New York",Manhattan,Office,-73.98118,1909,40.736925,1.472214304,1,2,2870
9,SQUARE_FOOT,17,54088,0,RENT,"200 Park Ave S, New York, New York",Manhattan,Office,-73.989191,1903,40.736856,1.471607485,1,3,2870
3,SQUARE_FOOT,20,36348,0,RENT,"915 Broadway, New York, New York",Manhattan,Office,-73.989926,1927,40.739774,1.278308502,1,3,2870
3,SQUARE_FOOT,6,38000,0,RENT,"39 Clarkson St, New York, New York",Manhattan,Office,-74.007725,1920,40.729782,2.267775296,1,3,936
1,SQUARE_FOOT,17,10000,0,RENT,"200 Park Ave S, New York, New York",Manhattan,Office,-73.989191,1903,40.736856,1.471607485,1,1,2870
3,SQUARE_FOOT,11,20000,83333,RENT,"41 E 11th St, New York, New York",Manhattan,Office,-73.99291,1890,40.733376,1.742813305,0,2,2870
6,SQUARE_FOOT,12,10000,33333,RENT,"134-142 W 37th St, New York, New York",Manhattan,Office,-73.988513,1921,40.752378,0.416776994,0,3,5284
2,SQUARE_FOOT,32,10025,0,RENT,"86 Fleet Pl, Brooklyn, New York",Brooklyn,Multi-Family,-73.982134,2018,40.693268,4.474368356,1,0,1875
9,SQUARE_FOOT,12,351149,0,RENT,"140 58th St, Brooklyn, New York",Brooklyn,,-74.025581,1918,40.645107,8.075501289,1,3,1693
3,SQUARE_FOOT,9,61539,0,RENT,"175 Pearl St, Brooklyn, New York",Brooklyn,Coworking,-73.987524,1918,40.699553,4.037888004,1,1,652
12,SQUARE_FOOT,16,21697,110293,RENT,"120 E 56th St, New York, New York",Manhattan,Office,-73.970686,1926,40.760332,0.794404308,0,2,3053
7,SQUARE_FOOT,15,2000,0,RENT,"993 Fifth Ave, New York, New York",Manhattan,Multi-Family,-73.962754,1929,40.777855,1.819016085,1,3,1349
8,SQUARE_FOOT,12,437500,0,RENT,"220 36th St, Brooklyn, New York",Brooklyn,,-74.007547,1911,40.656015,7.138397124,1,1,1693
2,SQUARE_FOOT,12,7999,0,RENT,"220 36th St, Brooklyn, New York",Brooklyn,,-74.007547,1911,40.656015,7.138397124,1,0,1693
16,SQUARE_FOOT,19,9765,38246,RENT,"274 Madison Ave, New York, New York",Manhattan,Office,-73.980646,1927,40.751367,0.523562663,0,1,2449
9,SQUARE_FOOT,23,25600,123733,RENT,"501 Fifth Ave, New York, New York",Manhattan,Office,-73.980739,1916,40.753158,0.417091901,0,2,2449
1,SQUARE_FOOT,26,34510,172550,RENT,"305-315 Madison Ave, New York, New York",Manhattan,Office,-73.979234,1917,40.752443,0.505075425,0,3,3525
10,SQUARE_FOOT,17,640,2613,RENT,"37 W 47th St, New York, New York",Manhattan,Office,-73.980425,1925,40.757625,0.268925493,0,2,2008
15,SQUARE_FOOT,16,18138,74064,RENT,"333 W 52nd St, New York, New York",Manhattan,Office,-73.986631,1929,40.764352,0.444295847,0,0,2505
9,SQUARE_FOOT,16,5269,19320,RENT,"71 W 47th St, New York, New York",Manhattan,Office,-73.981179,1915,40.758004,0.228384375,0,1,2008
9,SQUARE_FOOT,20,7400,0,RENT,"100 Fifth Ave, New York, New York",Manhattan,Office,-73.99314,1905,40.737098,1.496259622,1,0,2870
21,SQUARE_FOOT,25,15000,0,RENT,"90 Broad St, New York, New York",Manhattan,Coworking,-74.011892,1930,40.703775,3.990881237,1,0,1466
11,SQUARE_FOOT,12,30000,0,RENT,"1115 Broadway, New York, New York",Manhattan,Coworking,-73.989846,1900,40.743144,1.049168888,1,1,4971
10,SQUARE_FOOT,20,44231,0,RENT,"100 Fifth Ave, New York, New York",Manhattan,Office,-73.99314,1905,40.737098,1.496259622,1,3,2870
4,SQUARE_FOOT,12,14535,42394,RENT,"146 W 29th St, New York, New York",Manhattan,Office,-73.992108,1910,40.747311,0.812987342,0,2,4971
11,SQUARE_FOOT,14,2911,17951,RENT,"315 W 57th St, New York, New York",Manhattan,Multi-Family,-73.983721,1965,40.767362,0.655568842,0,1,2482
7,SQUARE_FOOT,10,10900,34517,RENT,"110 E 23rd St, New York, New York",Manhattan,Office,-73.985967,1900,40.739688,1.263685909,0,0,2870
2,SQUARE_FOOT,5,9900,46340,RENT,"69 Mercer St, New York, New York",Manhattan,Office,-74.000613,1890,40.722638,2.565835878,0,0,1043
2,SQUARE_FOOT,12,2950,10030,RENT,"139 Fulton St, New York, New York",Manhattan,Office,-74.007731,1879,40.710489,3.480534864,0,0,1541
3,SQUARE_FOOT,4,2900,78542,RENT,"53 Spring St, New York, New York",Manhattan,Multi-Family,-73.996566,1900,40.722314,2.530597232,0,2,927
4,SQUARE_FOOT,5,9270,57938,RENT,"901 Broadway, New York, New York",Manhattan,Office,-73.990138,1867,40.739199,1.319389409,0,3,2870
5,SQUARE_FOOT,6,14491,66417,RENT,"131-133 Spring St, New York, New York",Manhattan,Retail,-74.000509,1915,40.724084,2.469222236,0,1,936
3,SQUARE_FOOT,4,14493,54349,RENT,"160 Dikeman St, Brooklyn, New York",Brooklyn,Office,-74.015105,2020,40.678105,5.731509051,0,0,84
3,SQUARE_FOOT,4,178034,0,RENT,"94 9th St, Brooklyn, New York",Brooklyn,Office,-73.994455,1925,40.672998,5.889853377,1,2,729
2,SQUARE_FOOT,2,15930,0,RENT,"185 Van Dyke St, Brooklyn, New York",Brooklyn,Industrial,-74.01844,1855,40.67747,5.823026538,1,0,84
2,SQUARE_FOOT,2,11900,34708,RENT,"1301 Avenue J, Brooklyn, New York",Brooklyn,Retail,-73.963045,1927,40.625302,9.242270103,0,2,757
3,SQUARE_FOOT,4,22650,15100,RENT,"2184 Mill Ave, Brooklyn, New York",Brooklyn,Industrial,-73.913658,1930,40.612085,10.76066207,0,2,332
7,SQUARE_FOOT,8,46000,0,RENT,"2250 59th St, Brooklyn, New York",Brooklyn,Office,-73.97662,2020,40.616295,9.800290577,1,2,968
1,SQUARE_FOOT,1,26000,125667,RENT,"25 Franklin St, Brooklyn, New York",Brooklyn,Flex,-73.957476,1973,40.725989,2.653833415,0,1,1516
15,SQUARE_FOOT,37,29550,160062,RENT,"580 Fifth Ave, New York, New York",Manhattan,Office,-73.979037,1927,40.757138,0.345355276,0,3,2008
1,SQUARE_FOOT,5,101794,186622,RENT,"122 W 146th St, New York, New York",Manhattan,Specialty,-73.937382,2019,40.821547,5.063649382,0,0,125
4,SQUARE_FOOT,12,1067,8803,RENT,"151 E 80th St, New York, New York",Manhattan,Multi-Family,-73.958048,1922,40.775747,1.891544651,0,3,1349
4,SQUARE_FOOT,12,18569,0,RENT,"2151 Broadway, New York, New York",Manhattan,Multi-Family,-73.981464,1901,40.781522,1.640901886,1,3,1642
1,SQUARE_FOOT,1,2750,17188,RENT,"1139-1141 Manhattan Ave, Brooklyn, New York",Brooklyn,Retail,-73.955622,1900,40.737452,2.11272301,0,1,207
6,SQUARE_FOOT,6,3500,11667,RENT,"45-47 W 29th St, New York, New York",Manhattan,Office,-73.989378,1910,40.746608,0.810615098,0,0,4971
1,SQUARE_FOOT,4,600,7200,RENT,"1165 2nd Ave, New York, New York",Manhattan,Retail,-73.96352,1910,40.762179,1.188592861,0,1,2320
3,SQUARE_FOOT,31,99382,0,RENT,"29 Broadway, New York, New York",Manhattan,Office,-74.013816,1931,40.706137,3.875497591,1,1,2700
2,SQUARE_FOOT,11,4650,21312,RENT,"575 4th Ave, Brooklyn, New York",Brooklyn,Multi-Family,-73.992359,2020,40.665549,6.395978325,0,1,1091
6,SQUARE_FOOT,12,10500,34562,RENT,"151 W 25th St, New York, New York",Manhattan,Office,-73.993747,1909,40.745278,0.97672555,0,2,4971
5,SQUARE_FOOT,6,2735,17504,RENT,"201 E 16th St, New York, New York",Manhattan,Office,-73.985919,1915,40.734646,1.611980073,0,0,2870
3,SQUARE_FOOT,7,4000,19500,RENT,"70-74 Lafayette St, New York, New York",Manhattan,Office,-74.002121,1920,40.716948,2.964569465,0,1,1043
6,SQUARE_FOOT,6,2500,19792,RENT,"401 Greenwich St, New York, New York",Manhattan,Office,-74.009677,2002,40.720929,2.85446295,0,1,2126
1,SQUARE_FOOT,5,900,18000,RENT,"155 Chambers St, New York, New York",Manhattan,Multi-Family,-74.00999,1920,40.71607,3.165614696,0,1,2126
5,SQUARE_FOOT,5,3250,22208,RENT,"766 Madison Ave, New York, New York",Manhattan,Retail,-73.96857,1923,40.767868,1.120799561,0,2,1349
2,SQUARE_FOOT,6,1577,16992,RENT,"23 E 67th St, New York, New York",Manhattan,Office,-73.967875,1910,40.768883,1.192856638,0,3,1349
3,SQUARE_FOOT,5,10400,51567,RENT,"483-485 Broadway, New York, New York",Manhattan,Office,-74.000427,1900,40.721792,2.618606308,0,1,1043
1,SQUARE_FOOT,1,25700,32125,RENT,"1700 Atlantic Ave, Brooklyn, New York",Brooklyn,Industrial,-73.934383,1920,40.677273,6.186199593,0,2,567
5,SQUARE_FOOT,6,10217,39165,RENT,"165-167 Madison Ave, New York, New York",Manhattan,Office,-73.983242,1930,40.746856,0.77760894,0,2,5284
1,SQUARE_FOOT,1,1400,5250,RENT,"3023-3025 Avenue V, Brooklyn, New York",Brooklyn,Retail,-73.937321,1950,40.598967,11.27320705,0,0,332
1,SQUARE_FOOT,13,34900,171592,RENT,"250-252 W 54th St, New York, New York",Manhattan,Office,-73.983496,1920,40.764253,0.446816456,0,3,2505
3,SQUARE_FOOT,9,2129,0,RENT,"37-39 W 8th St, New York, New York",Manhattan,Multi-Family,-73.998197,1923,40.733234,1.833276347,1,1,936
12,SQUARE_FOOT,12,7000,0,RENT,"38 W 21st St, New York, New York",Manhattan,Office,-73.992632,1940,40.740934,1.23449301,1,1,2870
3,SQUARE_FOOT,5,2450,0,RENT,"605 E 132nd St, Bronx, New York",Bronx,Industrial,-73.918825,1945,40.802509,4.653207658,1,0,9
1,SQUARE_FOOT,5,5000,0,RENT,"695 Avenue Of The Americas, New York, New York",Manhattan,Coworking,-73.993483,1910,40.742626,1.139029547,1,2,2870
2,SQUARE_FOOT,21,1065,0,RENT,"1120 Avenue of the Americas, New York, New York",Manhattan,Coworking,-73.982791,1951,40.755615,0.217534596,1,1,2008
2,SQUARE_FOOT,21,3375,0,RENT,"1120 Avenue of the Americas, New York, New York",Manhattan,Office,-73.982791,1951,40.755615,0.217534596,1,2,2008
13,SQUARE_FOOT,21,7181,0,RENT,"1120 Avenue of the Americas, New York, New York",Manhattan,Office,-73.982791,1951,40.755615,0.217534596,1,0,2008
12,SQUARE_FOOT,21,3375,0,RENT,"1120 Avenue of the Americas, New York, New York",Manhattan,Office,-73.982791,1951,40.755615,0.217534596,1,3,2008
5,SQUARE_FOOT,5,1200,7000,RENT,"1045 Union St, Brooklyn, New York",Brooklyn,Multi-Family,-73.95859,1923,40.670009,6.239608038,0,2,708
1,SQUARE_FOOT,5,500,5000,RENT,"149 Avenue A, New York, New York",Manhattan,Retail/Office,-73.982679,1900,40.727579,2.10548605,0,1,936
1,SQUARE_FOOT,5,1785,5504,RENT,"2647 Frederick Douglass Blvd, New York, New York",Manhattan,Retail,-73.94378,1920,40.82059,4.846620626,0,0,560
3,SQUARE_FOOT,3,3000,7500,RENT,"129 20th St, Brooklyn, New York",Brooklyn,Office,-73.996688,1963,40.664443,6.488733841,0,2,1091
2,SQUARE_FOOT,2,38000,63333,RENT,"69 2nd Ave, Brooklyn, New York",Brooklyn,Industrial,-73.992781,1938,40.672729,5.902102943,0,0,729
1,SQUARE_FOOT,5,1762,10278,RENT,"324 E 59th St, New York, New York",Manhattan,Retail,-73.963242,1910,40.759928,1.174894875,0,1,3053
1,SQUARE_FOOT,2,2000,4167,RENT,"1675 Mcdonald Ave, Brooklyn, New York",Brooklyn,Retail,-73.973378,1931,40.612159,10.09504492,0,0,968
1,SQUARE_FOOT,1,7500,15625,RENT,"758 Humboldt St, Brooklyn, New York",Brooklyn,Industrial,-73.945569,1931,40.728045,2.941964621,0,1,1516
6,SQUARE_FOOT,8,2350,8812,RENT,"88 Withers St, Brooklyn, New York",Brooklyn,Multi-Family,-73.94846,2019,40.71685,3.44132884,0,2,468
1,SQUARE_FOOT,6,1200,6000,RENT,"427 Fort Washington Ave, New York, New York",Manhattan,Retail,-73.939204,1950,40.849572,6.776932903,0,0,1958
1,SQUARE_FOOT,2,900,2250,RENT,"272 41st St, Brooklyn, New York",Brooklyn,Industrial,-74.010078,1931,40.652902,7.372697657,0,3,1693
3,SQUARE_FOOT,4,1000,15000,RENT,"656-658 Ninth Ave, New York, New York",Manhattan,Multi-Family,-73.990674,1920,40.760726,0.32902573,0,1,3639
8,SQUARE_FOOT,16,600,4800,RENT,"1067 Madison Ave, New York, New York",Manhattan,Multi-Family,-73.961917,1938,40.777325,1.820975178,0,3,1349
1,SQUARE_FOOT,2,3275,13998,RENT,"209 N 8th St, Brooklyn, New York",Brooklyn,Industrial,-73.95521,1950,40.717361,3.224301235,0,1,1516
1,SQUARE_FOOT,2,1000,3833,RENT,"617 Washington Ave, Brooklyn, New York",Brooklyn,Retail/Office,-73.963796,1932,40.679038,5.571632457,0,1,708
4,SQUARE_FOOT,4,4800,12000,RENT,"65 Jay St, Brooklyn, New York",Brooklyn,Office,-73.98639,1930,40.70282,3.811085102,0,1,652
2,SQUARE_FOOT,7,4100,14350,RENT,"53 Bridge St, Brooklyn, New York",Brooklyn,Office,-73.984409,1940,40.702767,3.814950517,0,3,652
3,SQUARE_FOOT,3,600,5000,RENT,"574 Manhattan Ave, Brooklyn, New York",Brooklyn,Multi-Family,-73.949865,1931,40.722643,3.073733264,0,0,1516
1,SQUARE_FOOT,3,2000,6200,RENT,"251 Empire Blvd, Brooklyn, New York",Brooklyn,Retail,-73.954146,1930,40.663959,6.700758084,0,1,961
8,SQUARE_FOOT,13,1350,4950,RENT,"12 W 32nd St, New York, New York",Manhattan,Office,-73.986593,1908,40.747302,0.739459995,0,3,5284
1,SQUARE_FOOT,2,1800,3500,RENT,"8301 4th Ave, Brooklyn, New York",Brooklyn,Office,-74.027193,1978,40.624737,9.460911145,0,0,1284
3,SQUARE_FOOT,5,2200,7700,RENT,"38 W 28th St, New York, New York",Manhattan,Retail,-73.98964,1910,40.745494,0.888602827,0,3,4971
1,SQUARE_FOOT,1,50000,68750,RENT,"1900 Linden Blvd, Brooklyn, New York",Brooklyn,Industrial,-73.891342,1956,40.657311,8.527469351,0,3,567
7,SQUARE_FOOT,12,2400,13000,RENT,"50 W 17th St, New York, New York",Manhattan,Office,-73.994746,1924,40.73871,1.415559251,0,3,2870
3,SQUARE_FOOT,5,1600,16933,RENT,"785 Ninth Ave, New York, New York",Manhattan,Multi-Family,-73.988149,1901,40.765082,0.509659779,0,1,2505
5,SQUARE_FOOT,5,400,2000,RENT,"137 W 116th St, New York, New York",Manhattan,Multi-Family,-73.951241,1920,40.802866,3.583456085,0,2,1745
2,SQUARE_FOOT,7,1050,4812,RENT,"17-23 E Broadway, New York, New York",Manhattan,Office,-73.997051,1899,40.713327,3.1431505,0,2,1043
2,SQUARE_FOOT,3,900,2250,RENT,"525 Nostrand Ave, Brooklyn, New York",Brooklyn,Retail,-73.949424,1910,40.679294,5.755961947,0,3,708
4,SQUARE_FOOT,4,1520,7999,RENT,"450 Atlantic Ave, Brooklyn, New York",Brooklyn,Retail,-73.983398,2020,40.686145,4.964230009,0,3,1875
1,SQUARE_FOOT,2,6000,16000,RENT,"1261 Coney Island Ave, Brooklyn, New York",Brooklyn,Industrial,-73.965204,1923,40.626896,9.119137053,0,0,757
2,SQUARE_FOOT,2,3100,9042,RENT,"6321-6325 New Utrecht Ave, Brooklyn, New York",Brooklyn,Office,-73.997162,1925,40.624556,9.238430821,0,3,1693
2,SQUARE_FOOT,2,600,2650,RENT,"2913 Quentin Rd, Brooklyn, New York",Brooklyn,Retail,-73.944024,1933,40.609948,10.45645311,0,3,968
1,SQUARE_FOOT,1,3700,15417,RENT,"5121 Avenue U, Brooklyn, New York",Brooklyn,Retail,-73.922203,1950,40.610357,10.72573599,0,2,332
1,SQUARE_FOOT,3,30000,62500,RENT,"2702 W 15th St, Brooklyn, New York",Brooklyn,Flex,-73.983789,2020,40.581653,12.1830158,0,3,1442
1,SQUARE_FOOT,1,10000,33333,RENT,"430 89th St, Brooklyn, New York",Brooklyn,Retail,-74.028476,1956,40.61989,9.802306269,0,1,1284
1,SQUARE_FOOT,1,25000,45000,RENT,"236-252 Plymouth St, Brooklyn, New York",Brooklyn,Industrial,-73.983741,1987,40.703489,3.765784912,0,0,652
3,SQUARE_FOOT,4,1150,2012,RENT,"964 Belmont Ave, Brooklyn, New York",Brooklyn,Multi-Family,-73.872936,1925,40.673745,8.285266803,0,0,541
1,SQUARE_FOOT,1,3333,4500,RENT,"748 E 94th St, Brooklyn, New York",Brooklyn,Retail,-73.912162,1957,40.650105,8.385804398,0,0,567
5,SQUARE_FOOT,5,5000,50000,RENT,"597 Broadway, New York, New York",Manhattan,Multi-Family,-73.997406,1900,40.725292,2.342002656,0,1,936
12,SQUARE_FOOT,13,19055,71456,RENT,"17-19 West 34th St, New York, New York",Manhattan,Office,-73.985746,1940,40.74941,0.591860164,0,1,5284
1,SQUARE_FOOT,5,5660,14150,RENT,"3617 13th Ave, Brooklyn, New York",Brooklyn,Specialty,-73.984237,2019,40.641573,8.042882268,0,2,757
5,SQUARE_FOOT,5,55000,55000,RENT,"351 Walker St, Staten Island, New York",Staten Island,Flex,-74.150802,1945,40.632034,12.27467091,0,3,74
3,SQUARE_FOOT,3,1200,5000,RENT,"1556 Fulton St, Brooklyn, New York",Brooklyn,Retail,-73.938672,1910,40.679589,5.946164348,0,2,567
1,SQUARE_FOOT,4,2200,16500,RENT,"238 Mulberry St, New York, New York",Manhattan,Retail/Office,-73.995773,1900,40.722734,2.493104517,0,3,927
2,SQUARE_FOOT,2,3150,15750,RENT,"124 Montague St, Brooklyn, New York",Brooklyn,Retail,-73.994543,1920,40.694652,4.400490327,0,1,885
11,SQUARE_FOOT,16,2500,31250,RENT,"242-246 Madison Ave, New York, New York",Manhattan,Multi-Family,-73.981553,1916,40.750267,0.572026317,0,2,2449
2,SQUARE_FOOT,3,2500,10417,RENT,"236-238 Court St, Brooklyn, New York",Brooklyn,Retail,-73.994448,1931,40.685965,4.997202486,0,2,1222
1,SQUARE_FOOT,1,19960,44910,RENT,"236-252 Plymouth St, Brooklyn, New York",Brooklyn,Industrial,-73.983741,1987,40.703489,3.765784912,0,1,652
2,SQUARE_FOOT,6,3900,7498,RENT,"50 Bridge St, Brooklyn, New York",Brooklyn,Multi-Family,-73.985237,1922,40.703346,3.774517603,0,3,652
3,SQUARE_FOOT,5,800,6500,RENT,"173 Ludlow St, New York, New York",Manhattan,Multi-Family,-73.987689,1900,40.721845,2.498852161,0,0,927
1,SQUARE_FOOT,2,16866,140550,RENT,"435-443 W 18th St, New York, New York",Manhattan,Specialty,-74.005146,1920,40.744365,1.391788966,0,1,1655
6,SQUARE_FOOT,6,580,5413,RENT,"42-52 Kenmare St, New York, New York",Manhattan,Multi-Family,-73.995606,1900,40.720683,2.629919216,0,2,927
4,SQUARE_FOOT,4,1100,4500,RENT,"380 Marcus Garvey Blvd, Brooklyn, New York",Brooklyn,Multi-Family,-73.938518,1900,40.684096,5.667450724,0,1,588
3,SQUARE_FOOT,5,2000,8500,RENT,"511 5th Ave, Brooklyn, New York",Brooklyn,Multi-Family,-73.987951,1910,40.666832,6.298623884,0,3,1091
1,SQUARE_FOOT,4,450,3000,RENT,"161 Havemeyer St, Brooklyn, New York",Brooklyn,Multi-Family,-73.957485,2016,40.711242,3.547359173,0,3,1516
2,SQUARE_FOOT,3,810,3510,RENT,"7301 13th Ave, Brooklyn, New York",Brooklyn,Retail,-74.006185,1950,40.621234,9.509576256,0,2,1284
1,SQUARE_FOOT,3,1375,3199,RENT,"1784 Pitkin Ave, Brooklyn, New York",Brooklyn,Retail,-73.907244,1930,40.670032,7.3304653,0,0,567
1,SQUARE_FOOT,1,2000,2500,RENT,"1669 McDonald Ave, Brooklyn, New York",Brooklyn,Specialty,-73.97333,1931,40.61237,10.08065459,0,0,968
1,SQUARE_FOOT,11,2585,32312,RENT,"1033-1041 Lexington Ave, New York, New York",Manhattan,Multi-Family,-73.960896,1923,40.771826,1.606066809,0,2,1349
11,SQUARE_FOOT,12,4850,16167,RENT,"49 W 24th St, New York, New York",Manhattan,Office,-73.991448,1910,40.743483,1.047906296,0,0,4971
3,SQUARE_FOOT,3,800,4900,RENT,"8702 3rd Ave, Brooklyn, New York",Brooklyn,Retail,-74.031705,1926,40.622712,9.653604969,0,1,1284
1,SQUARE_FOOT,3,900,15000,RENT,"271 Bleecker St, New York, New York",Manhattan,Retail/Office,-74.002977,1910,40.73152,2.043018696,0,2,936
5,SQUARE_FOOT,5,2000,8333,RENT,"98 Orchard St, New York, New York",Manhattan,Multi-Family,-73.989781,1931,40.718528,2.734524666,0,3,927
2,SQUARE_FOOT,2,1800,7500,RENT,"190-206 Union Ave, Brooklyn, New York",Brooklyn,Retail,-73.950058,1965,40.706277,4.026241709,0,0,588
5,SQUARE_FOOT,6,1000,4500,RENT,"293-299 Fort Washington Ave, New York, New York",Manhattan,Multi-Family,-73.941036,1922,40.845367,6.471386574,0,3,1684
3,SQUARE_FOOT,4,9400,27417,RENT,"199 N 8th St, Brooklyn, New York",Brooklyn,Office,-73.955505,1910,40.717607,3.201904947,0,2,1516
3,SQUARE_FOOT,3,800,2000,RENT,"1401 80th St, Brooklyn, New York",Brooklyn,Office,-74.007914,1930,40.616197,9.865777433,0,2,1284
5,SQUARE_FOOT,5,1700,12499,RENT,"2224 Eighth Ave, New York, New York",Manhattan,Multi-Family,-73.953324,1910,40.806768,3.769197024,0,1,1745
3,SQUARE_FOOT,3,1850,8479,RENT,"929-931 Flatbush Ave, Brooklyn, New York",Brooklyn,Retail,-73.958129,1950,40.649056,7.661328808,0,2,961
4,SQUARE_FOOT,6,1000,40000,RENT,"54 W 47th St, New York, New York",Manhattan,Office,-73.98092,2016,40.757398,0.245191029,0,2,2008
5,SQUARE_FOOT,5,1000,9990,RENT,"69 Thompson St, New York, New York",Manhattan,Multi-Family,-74.003266,1900,40.72448,2.493321796,0,1,936
3,SQUARE_FOOT,5,1700,7225,RENT,"462 W Broadway, New York, New York",Manhattan,Multi-Family,-74.000656,1900,40.726416,2.319595519,0,1,936
7,SQUARE_FOOT,12,43876,201098,RENT,"636 Broadway, New York, New York",Manhattan,Office,-73.995634,1900,40.726107,2.264334466,0,0,936
9,SQUARE_FOOT,13,11517,36470,RENT,"721-723 7th Ave, New York, New York",Manhattan,Office,-73.983825,1920,40.759862,0.158381529,0,1,2990
2,SQUARE_FOOT,6,2000,10000,RENT,"146 Orchard St, New York, New York",Manhattan,Multi-Family,-73.988813,1900,40.720543,2.591944901,0,2,927
3,SQUARE_FOOT,3,2000,9900,RENT,"640 Manhattan Ave, Brooklyn, New York",Brooklyn,Retail,-73.950872,1931,40.724178,2.957540941,0,1,1516
3,SQUARE_FOOT,3,400,2917,RENT,"467 16th St, Brooklyn, New York",Brooklyn,Retail,-73.98004,1910,40.66038,6.749307437,0,3,1091
4,SQUARE_FOOT,5,3250,32392,RENT,"77 Warren St, New York, New York",Manhattan,Multi-Family,-74.010359,1999,40.715059,3.237335968,0,1,2126
3,SQUARE_FOOT,7,6100,101667,RENT,"150 Greene St, New York, New York",Manhattan,Multi-Family,-73.998424,1900,40.725886,2.317397873,0,3,936
1,SQUARE_FOOT,3,1800,5499,RENT,"298 Tompkins Ave, Brooklyn, New York",Brooklyn,Retail/Office,-73.9451,1899,40.68779,5.291553741,0,0,588
3,SQUARE_FOOT,9,1720,9000,RENT,"2110-2118 Frederick Douglass Blvd, New York, New York",Manhattan,Multi-Family,-73.955961,2008,40.803214,3.487910418,0,0,1745
5,SQUARE_FOOT,20,205,615,RENT,"259-265 W 14th St, New York, New York",Manhattan,Office,-74.002046,1929,40.739847,1.521512682,0,2,1655
2,SQUARE_FOOT,4,3500,13708,RENT,"157 E 33rd St, New York, New York",Manhattan,Retail,-73.979282,1910,40.745529,0.920236479,0,3,3525
1,SQUARE_FOOT,5,1000,3500,RENT,"306 W 106th St, New York, New York",Manhattan,Multi-Family,-73.969279,1905,40.801672,3.136809523,0,3,1745
3,SQUARE_FOOT,3,1200,5400,RENT,"191 Knickerbocker Ave, Brooklyn, New York",Brooklyn,Retail,-73.92683,1931,40.70392,4.83722553,0,2,588
1,SQUARE_FOOT,3,950,3749,RENT,"1424 Flatbush Ave, Brooklyn, New York",Brooklyn,Multi-Family,-73.951269,1933,40.63582,8.628935701,0,1,757
2,SQUARE_FOOT,3,2300,9583,RENT,"447-449 Keap St, Brooklyn, New York",Brooklyn,Multi-Family,-73.952685,1910,40.712367,3.590158577,0,3,468
4,SQUARE_FOOT,6,2250,16875,RENT,"886-894 1st Ave, New York, New York",Manhattan,Multi-Family,-73.965834,1930,40.753935,1.068606138,0,1,1227
20,SQUARE_FOOT,22,2600,9750,RENT,"363 Seventh Ave, New York, New York",Manhattan,Office,-73.992089,1930,40.748473,0.740540958,0,1,4971
5,SQUARE_FOOT,8,1500,5000,RENT,"1180 Brighton Beach Ave, Brooklyn, New York",Brooklyn,Office,-73.954631,2005,40.577004,12.60839144,0,2,1442
13,SQUARE_FOOT,21,22264,77924,RENT,"205 E 42nd St, New York, New York",Manhattan,Office,-73.973492,1927,40.750911,0.797499155,0,1,3525
1,SQUARE_FOOT,1,7740,20640,RENT,"255 Eastern Pkwy, Brooklyn, New York",Brooklyn,Office,-73.960276,1924,40.671628,6.11096889,0,1,708
4,SQUARE_FOOT,7,500,2000,RENT,"1271-1273 Broadway, New York, New York",Manhattan,Office,-73.988483,1929,40.74826,0.688639536,0,1,5284
1,SQUARE_FOOT,1,1360,12000,RENT,"1014 Lexington Ave, New York, New York",Manhattan,Retail,-73.96215,1910,40.77096,1.517744948,0,1,1349
1,SQUARE_FOOT,1,20000,25000,RENT,"693-713 Atkins Ave, Brooklyn, New York",Brooklyn,Industrial,-73.872385,1958,40.66193,8.897256275,0,1,567
2,SQUARE_FOOT,4,2500,25000,RENT,"32 E 67th St, New York, New York",Manhattan,Office,-73.967465,1910,40.768288,1.18438681,0,2,1349
2,SQUARE_FOOT,6,400,2500,RENT,"215 Thompson St, New York, New York",Manhattan,Multi-Family,-73.999397,1900,40.729103,2.122590169,0,3,936
3,SQUARE_FOOT,8,3600,10950,RENT,"50 Eldridge St, New York, New York",Manhattan,Office,-73.992784,1912,40.716057,2.920943956,0,2,1043
2,SQUARE_FOOT,6,850,8358,RENT,"218-220 Thompson St, New York, New York",Manhattan,Multi-Family,-73.99892,1900,40.728987,2.121752944,0,1,936
3,SQUARE_FOOT,4,2200,10450,RENT,"243 E 60th St, New York, New York",Manhattan,Multi-Family,-73.964336,1910,40.761618,1.138037923,0,3,3053
5,SQUARE_FOOT,5,1160,9280,RENT,"318 Lexington Ave, New York, New York",Manhattan,Multi-Family,-73.977907,1910,40.749211,0.725509977,0,2,3525
2,SQUARE_FOOT,2,3000,16500,RENT,"33-35 Grand St, Brooklyn, New York",Brooklyn,Retail,-73.965721,1889,40.716273,3.062486487,0,2,223
1,SQUARE_FOOT,3,750,3700,RENT,"522 3rd Ave, Brooklyn, New York",Brooklyn,Retail,-73.992862,1920,40.669612,6.117303013,0,2,1091
1,SQUARE_FOOT,2,4232,23276,RENT,"138 W 18 St, New York, New York",Manhattan,Retail,-73.996734,1920,40.740325,1.352879922,0,1,1655
2,SQUARE_FOOT,2,2430,3240,RENT,"50 Mother Gaston Blvd, Brooklyn, New York",Brooklyn,Retail,-73.908707,1931,40.680207,6.712783793,0,3,567
4,SQUARE_FOOT,4,1975,14812,RENT,"147 Wooster St, New York, New York",Manhattan,Multi-Family,-73.999731,1900,40.726124,2.322636588,0,2,936
2,SQUARE_FOOT,5,2050,5296,RENT,"250 Third Ave, New York, New York",Manhattan,Office,-73.984591,1960,40.737332,1.427144267,0,2,2870
3,SQUARE_FOOT,5,1700,9067,RENT,"25 8th Ave, Brooklyn, New York",Brooklyn,Retail,-73.971732,1891,40.674818,5.79092295,0,2,708
3,SQUARE_FOOT,3,1800,5250,RENT,"1486 Flatbush Ave, Brooklyn, New York",Brooklyn,Retail,-73.94979,1933,40.634558,8.730537741,0,3,757
5,SQUARE_FOOT,5,1600,10000,RENT,"212 W 14th St, New York, New York",Manhattan,Retail,-74.000739,1915,40.738707,1.550809482,0,3,1655
7,SQUARE_FOOT,16,1600,10667,RENT,"325 E 79th St, New York, New York",Manhattan,Multi-Family,-73.953581,1929,40.772974,1.96761627,0,1,1349
17,SQUARE_FOOT,21,4338,23498,RENT,"317 Schermerhorn St, Brooklyn, New York",Brooklyn,Multi-Family,-73.981529,2018,40.687463,4.876425612,0,2,1875
3,SQUARE_FOOT,3,400,2500,RENT,"9016 3rd Ave, Brooklyn, New York",Brooklyn,Retail,-74.032669,1927,40.620346,9.824533396,0,0,1284
3,SQUARE_FOOT,5,4500,18499,RENT,"47 W 14th St, New York, New York",Manhattan,Retail,-73.995744,1920,40.737158,1.534223708,0,0,2870
2,SQUARE_FOOT,2,1600,14667,RENT,"172 Allen St, New York, New York",Manhattan,Retail,-73.988932,1920,40.721397,2.533499601,0,3,927
2,SQUARE_FOOT,3,500,4000,RENT,"80 Nassau Ave, Brooklyn, New York",Brooklyn,Retail,-73.95105,1931,40.72355,2.986280158,0,1,1516
1,SQUARE_FOOT,1,1400,2333,RENT,"46 Androvette St, Staten Island, New York",Staten Island,Industrial,-74.237629,2016,40.53487,20.30445771,0,3,63
1,SQUARE_FOOT,1,5300,19875,RENT,"2945 Arthur Kill Rd, Staten Island, New York",Staten Island,Retail,-74.22953,1991,40.54694,19.3954677,0,1,63
1,SQUARE_FOOT,3,1500,7000,RENT,"494 4th Ave, Brooklyn, New York",Brooklyn,Retail,-73.990451,1931,40.668769,6.168885105,0,1,1091
1,SQUARE_FOOT,6,5500,11458,RENT,"16 Beaver St, New York, New York",Manhattan,Office,-74.012519,1920,40.704813,3.935320888,0,1,1466
4,SQUARE_FOOT,5,3000,15500,RENT,"138 Wooster St, New York, New York",Manhattan,Office,-73.99956,1920,40.725664,2.349962754,0,1,936
1,SQUARE_FOOT,1,2850,5938,RENT,"1637 Utica Ave, Brooklyn, New York",Brooklyn,Retail,-73.927987,1951,40.632397,9.185536531,0,3,332
1,SQUARE_FOOT,2,340,2349,RENT,"375 Classon Ave, Brooklyn, New York",Brooklyn,Retail,-73.959734,1899,40.688322,4.998695612,0,3,631
1,SQUARE_FOOT,1,2350,3917,RENT,"3937 Amboy Rd, Staten Island, New York",Staten Island,Retail,-74.149932,1973,40.551591,16.66107368,0,0,181
2,SQUARE_FOOT,6,1100,4125,RENT,"132-134 Avenue C, New York, New York",Manhattan,Multi-Family,-73.977888,1900,40.724915,2.319089678,0,1,927
1,SQUARE_FOOT,2,2800,6001,RENT,"245 N Gannon Ave, Staten Island, New York",Staten Island,Office,-74.130198,1981,40.608863,12.79019445,0,3,74
2,SQUARE_FOOT,5,500,3500,RENT,"13 Clinton St, New York, New York",Manhattan,Multi-Family,-73.984365,1920,40.720954,2.558629557,0,0,927
1,SQUARE_FOOT,6,7512,37560,RENT,"47-53 3rd Ave, New York, New York",Manhattan,Multi-Family,-73.988664,2007,40.730785,1.885721783,0,2,936
5,SQUARE_FOOT,5,1000,6500,RENT,"127 E 61st St, New York, New York",Manhattan,Multi-Family,-73.96771,1910,40.76392,1.019658589,0,0,3053
2,SQUARE_FOOT,3,1200,3500,RENT,"2414 Kings Hwy, Brooklyn, New York",Brooklyn,Office,-73.949484,1975,40.612337,10.2384226,0,1,968
2,SQUARE_FOOT,6,1140,7000,RENT,"730 Franklin Ave, Brooklyn, New York",Brooklyn,Multi-Family,-73.957166,2017,40.673662,6.012013849,0,0,708
4,SQUARE_FOOT,6,2800,7499,RENT,"5411 2nd Ave, Brooklyn, New York",Brooklyn,Multi-Family,-74.019279,2002,40.646451,7.905585701,0,0,1693
1,SQUARE_FOOT,1,27500,68750,RENT,"198 Randolph St, Brooklyn, New York",Brooklyn,Industrial,-73.925067,1964,40.70959,4.604465075,0,3,588
5,SQUARE_FOOT,6,2200,6967,RENT,"63 Clinton St, New York, New York",Manhattan,Retail,-73.98511,1920,40.719503,2.658237784,0,0,927
1,SQUARE_FOOT,3,1300,7042,RENT,"215 Smith St, Brooklyn, New York",Brooklyn,Retail,-73.991763,1931,40.684484,5.088160873,0,0,363
2,SQUARE_FOOT,3,600,1650,RENT,"168 7th St, Brooklyn, New York",Brooklyn,Office,-73.99089,1910,40.67299,5.878557663,0,1,729
1,SQUARE_FOOT,2,2150,4300,RENT,"920 Metropolitan Ave, Brooklyn, New York",Brooklyn,Industrial,-73.938331,1984,40.714346,3.898235839,0,2,468
3,SQUARE_FOOT,5,670,2650,RENT,"761 Saint Nicholas Ave, New York, New York",Manhattan,Multi-Family,-73.94353,1920,40.826275,5.205730613,0,3,189
2,SQUARE_FOOT,2,2000,15000,RENT,"312 Leonard St, Brooklyn, New York",Brooklyn,Retail,-73.947735,1899,40.715035,3.566518019,0,2,468
1,SQUARE_FOOT,1,1500,4000,RENT,"791 3rd Ave, Brooklyn, New York",Brooklyn,Industrial,-74.000996,1976,40.660177,6.805477877,0,3,1091
6,SQUARE_FOOT,7,1200,3500,RENT,"1865 Ocean Ave, Brooklyn, New York",Brooklyn,Multi-Family,-73.954317,1951,40.616589,9.904861515,0,0,968
2,SQUARE_FOOT,4,2000,4000,RENT,"499 Van Brunt St, Brooklyn, New York",Brooklyn,Industrial,-74.01696,1860,40.673147,6.087596663,0,3,84
1,SQUARE_FOOT,5,1500,11000,RENT,"94 Orchard St, New York, New York",Manhattan,Multi-Family,-73.989889,1920,40.71839,2.744491228,0,2,927
3,SQUARE_FOOT,3,650,1788,RENT,"3901 7th Ave, Brooklyn, New York",Brooklyn,Retail,-73.999346,1935,40.648364,7.607812304,0,2,1693
5,SQUARE_FOOT,5,2500,8750,RENT,"15 Jefferson St, Brooklyn, New York",Brooklyn,Retail,-73.935043,1950,40.697471,4.946459201,0,1,588
1,SQUARE_FOOT,3,7500,11875,RENT,"990 Broadway, Brooklyn, New York",Brooklyn,Retail,-73.934059,1920,40.6961,5.054077611,0,2,588
9,SQUARE_FOOT,12,250,4000,RENT,"40-56 University Pl, New York, New York",Manhattan,Multi-Family,-73.994266,1926,40.732545,1.815394195,0,2,936
2,SQUARE_FOOT,6,4800,20800,RENT,"530 Canal St, New York, New York",Manhattan,Multi-Family,-74.010499,1900,40.724892,2.632810642,0,2,2126
2,SQUARE_FOOT,3,1350,4162,RENT,"1335 Gates Ave, Brooklyn, New York",Brooklyn,Retail,-73.916833,1931,40.695053,5.643059901,0,0,664
1,SQUARE_FOOT,1,5000,9000,RENT,"165-175 6th St, Brooklyn, New York",Brooklyn,Industrial,-73.990422,1915,40.674143,5.797852637,0,0,729
3,SQUARE_FOOT,5,683,17986,RENT,"109-111 Spring St, New York, New York",Manhattan,Multi-Family,-73.999479,1920,40.72372,2.476669772,0,2,936
3,SQUARE_FOOT,3,7260,12100,RENT,"199 Cook St, Brooklyn, New York",Brooklyn,Industrial,-73.934879,1930,40.703412,4.609645568,0,1,588
6,SQUARE_FOOT,6,500,5000,RENT,"153 Ludlow St, New York, New York",Manhattan,Multi-Family,-73.988122,1900,40.72094,2.562414562,0,3,927
7,SQUARE_FOOT,8,14000,22458,RENT,"1634 Church Ave, Brooklyn, New York",Brooklyn,Retail,-73.963647,1914,40.649059,7.612249373,0,1,961
2,SQUARE_FOOT,4,800,9733,RENT,"606 Ninth Ave, New York, New York",Manhattan,Multi-Family,-73.991789,1920,40.759192,0.337557756,0,3,3639
1,SQUARE_FOOT,2,2500,5000,RENT,"228 51st St, Brooklyn, New York",Brooklyn,Industrial,-74.01696,1989,40.647972,7.776576853,0,0,1693
2,SQUARE_FOOT,2,9001,12459,RENT,"242 Richardson St, Brooklyn, New York",Brooklyn,Industrial,-73.941301,1950,40.719003,3.551762557,0,2,468
2,SQUARE_FOOT,4,6400,21333,RENT,"1513 First Ave, New York, New York",Manhattan,Retail,-73.95281,1915,40.772597,1.988671,0,1,1349
1,SQUARE_FOOT,1,900,2850,RENT,"32 Varet St, Brooklyn, New York",Brooklyn,Retail,-73.943647,1918,40.702822,4.396945378,0,0,588
3,SQUARE_FOOT,6,2191,10042,RENT,"171 E 74th St, New York, New York",Manhattan,Office,-73.96013,1910,40.771462,1.623873184,0,3,1349
13,SQUARE_FOOT,15,450,2138,RENT,"518-522 Third Ave, New York, New York",Manhattan,Multi-Family,-73.978003,1957,40.74629,0.898623767,0,0,3525
3,SQUARE_FOOT,4,3000,5400,RENT,"20 E 125th St, New York, New York",Manhattan,Multi-Family,-73.941358,1910,40.805807,4.033112532,0,0,1745
2,SQUARE_FOOT,6,4000,23667,RENT,"25 W 32nd St, New York, New York",Manhattan,Office,-73.986782,1906,40.747922,0.697598183,0,0,5284
4,SQUARE_FOOT,4,1600,4933,RENT,"258 W 91st St, New York, New York",Manhattan,Multi-Family,-73.974819,1901,40.791559,2.387327675,0,2,1642
1,SQUARE_FOOT,2,3524,8223,RENT,"78 Cromwell Ave, Staten Island, New York",Staten Island,Office,-74.098888,1995,40.591392,12.95193592,0,3,181
1,SQUARE_FOOT,2,13780,28708,RENT,"551 Stewart Ave, Brooklyn, New York",Brooklyn,Industrial,-73.933699,1945,40.725942,3.502010202,0,3,468
3,SQUARE_FOOT,3,1400,2800,RENT,"2375 Richmond Rd, Staten Island, New York",Staten Island,Office,-74.118241,1965,40.577216,14.29491446,0,0,181
3,SQUARE_FOOT,28,4020,26800,RENT,"1166-1184 Third Ave, New York, New York",Manhattan,Multi-Family,-73.963002,1959,40.767819,1.361659087,0,1,1349
2,SQUARE_FOOT,8,4000,13887,RENT,"288 West St, New York, New York",Manhattan,Multi-Family,-74.010824,1920,40.724724,2.651347041,0,1,2126
10,SQUARE_FOOT,17,1073,4471,RENT,"20 W 22nd St, New York, New York",Manhattan,Office,-73.991548,1910,40.741282,1.195424465,0,0,2870
2,SQUARE_FOOT,2,1200,4500,RENT,"600 Forest Ave, Staten Island, New York",Staten Island,Office,-74.109266,1980,40.629867,10.97072528,0,1,74
2,SQUARE_FOOT,3,1930,13000,RENT,"398 Knickerbocker Ave, Brooklyn, New York",Brooklyn,Retail,-73.920669,1931,40.699788,5.263155369,0,1,664
3,SQUARE_FOOT,4,1200,4500,RENT,"574 Atlantic Ave, Brooklyn, New York",Brooklyn,Retail,-73.978845,1910,40.684339,5.099816499,0,2,524
5,SQUARE_FOOT,5,2200,13750,RENT,"376 Bedford Ave, Brooklyn, New York",Brooklyn,Retail/Office,-73.963379,1899,40.711472,3.416141763,0,1,223
4,SQUARE_FOOT,8,4000,50000,RENT,"187-189 Lafayette St, New York, New York",Manhattan,Office,-73.998198,1905,40.720835,2.650255235,0,0,1043
2,SQUARE_FOOT,2,2500,4500,RENT,"3379-3381 Shore Pky, Brooklyn, New York",Brooklyn,Office,-73.950656,1927,40.585071,12.08558685,0,0,631
1,SQUARE_FOOT,1,3600,10500,RENT,"6214 Avenue U, Brooklyn, New York",Brooklyn,Retail,-73.913189,1950,40.61553,10.54679261,0,2,332
1,SQUARE_FOOT,1,1300,2925,RENT,"9119 Avenue L, Brooklyn, New York",Brooklyn,Retail,-73.899284,1961,40.636258,9.546876866,0,0,332
2,SQUARE_FOOT,3,1020,2850,RENT,"8318 4th Ave, Brooklyn, New York",Brooklyn,Office,-74.02789,1935,40.62465,9.475243714,0,3,1284
5,SQUARE_FOOT,12,5570,18102,RENT,"135 W 27th St, New York, New York",Manhattan,Office,-73.9924,1912,40.746231,0.887252165,0,3,4971
3,SQUARE_FOOT,4,800,1667,RENT,"508 Humboldt St, Brooklyn, New York",Brooklyn,Multi-Family,-73.94368,1910,40.719601,3.439877377,0,1,468
15,SQUARE_FOOT,17,10305,28339,RENT,"325 W 38th St, New York, New York",Manhattan,Office,-73.992726,1929,40.75541,0.415629608,0,2,3639
4,SQUARE_FOOT,7,1600,8533,RENT,"241-249 Centre St, New York, New York",Manhattan,Office,-73.9982,1910,40.720419,2.678121558,0,3,1043
3,SQUARE_FOOT,5,3527,25192,RENT,"1061-1063 1st Ave, New York, New York",Manhattan,Multi-Family,-73.962818,1930,40.758936,1.191170124,0,3,3053
2,SQUARE_FOOT,3,4500,25001,RENT,"405 W 39th St, New York, New York",Manhattan,Retail,-73.994326,2006,40.756794,0.466878736,0,2,3639
2,SQUARE_FOOT,4,700,9508,RENT,"242-252 7th Ave, Brooklyn, New York",Brooklyn,Retail,-73.979562,1900,40.669553,6.117381133,0,3,1091
1,SQUARE_FOOT,1,1100,3667,RENT,"1110 Liberty Ave, Brooklyn, New York",Brooklyn,Retail/Office,-73.868306,1920,40.678385,8.242138736,0,0,541
2,SQUARE_FOOT,2,650,4604,RENT,"119 5th Ave, Brooklyn, New York",Brooklyn,Retail,-73.978543,1920,40.678879,5.477271424,0,0,729
4,SQUARE_FOOT,5,2300,13417,RENT,"1661-1669 Amsterdam Ave, New York, New York",Manhattan,Multi-Family,-73.94889,1920,40.823418,4.911406233,0,1,189
6,SQUARE_FOOT,6,6033,22624,RENT,"1102-1114 Saint Nicholas Ave, New York, New York",Manhattan,Office,-73.939589,2011,40.839197,6.104990619,0,2,1684
5,SQUARE_FOOT,12,1440,6960,RENT,"14-16 E 4th St, New York, New York",Manhattan,Office,-73.993535,1908,40.727902,2.11953028,0,1,936
1,SQUARE_FOOT,1,7500,15625,RENT,"887-891 Dean St, Brooklyn, New York",Brooklyn,Industrial,-73.960408,1963,40.678527,5.644913881,0,2,708
1,SQUARE_FOOT,1,10571,16737,RENT,"1365 Halsey St, Brooklyn, New York",Brooklyn,Industrial,-73.905936,1928,40.695583,5.996503965,0,2,664
1,SQUARE_FOOT,5,280,3000,RENT,"300 E 5th St, New York, New York",Manhattan,Retail,-73.988778,1900,40.726565,2.176802605,0,1,936
5,SQUARE_FOOT,5,1500,26785,RENT,"96 Chambers St, New York, New York",Manhattan,Retail,-74.007651,1915,40.714613,3.211816014,0,2,2126
3,SQUARE_FOOT,3,6600,15400,RENT,"51-69 9th St, Brooklyn, New York",Brooklyn,Industrial,-73.995617,1923,40.67388,5.834294267,0,3,729
3,SQUARE_FOOT,4,1200,15000,RENT,"133 W Third St, New York, New York",Manhattan,Multi-Family,-74.00071,1900,40.731,2.025843466,0,3,936
2,SQUARE_FOOT,12,5000,11250,RENT,"39 W 29th St, New York, New York",Manhattan,Office,-73.989139,1914,40.746493,0.81533711,0,3,4971
3,SQUARE_FOOT,3,2020,7912,RENT,"495 Lorimer St, Brooklyn, New York",Brooklyn,Retail/Office,-73.949202,1920,40.711657,3.723100932,0,3,468
1,SQUARE_FOOT,2,1895,12633,RENT,"93 Hanson Pl, Brooklyn, New York",Brooklyn,Retail,-73.973782,2007,40.685754,5.027833897,0,3,524
4,SQUARE_FOOT,7,4600,17250,RENT,"34 W 15th St, New York, New York",Manhattan,Office,-73.994958,1920,40.737174,1.519347397,0,3,2870
2,SQUARE_FOOT,3,7500,30000,RENT,"353 E 58th St, New York, New York",Manhattan,Retail,-73.962705,1900,40.75933,1.198890026,0,1,3053
1,SQUARE_FOOT,7,2100,5199,RENT,"158 Broadway, Brooklyn, New York",Brooklyn,Multi-Family,-73.963015,2002,40.709967,3.520465402,0,1,223
1,SQUARE_FOOT,1,5000,7500,RENT,"1133 Utica Ave, Brooklyn, New York",Brooklyn,Industrial,-73.929404,1931,40.645246,8.325420175,0,0,993
3,SQUARE_FOOT,3,3600,7500,RENT,"78 Oak St, Brooklyn, New York",Brooklyn,Industrial,-73.957878,1931,40.727522,2.554298068,0,1,1516
2,SQUARE_FOOT,4,6000,22000,RENT,"1525 Voorhies Ave, Brooklyn, New York",Brooklyn,Office,-73.952995,1930,40.585993,12.0045902,0,2,631
9,SQUARE_FOOT,12,3200,12800,RENT,"104 W 27th St, New York, New York",Manhattan,Office,-73.991649,1909,40.74555,0.91603352,0,1,4971
4,SQUARE_FOOT,7,640,3200,RENT,"626 Sheepshead Bay Rd, Brooklyn, New York",Brooklyn,Coworking,-73.975483,2018,40.57884,12.38825161,0,3,1442
1,SQUARE_FOOT,2,1500,6500,RENT,"577 Union Ave, Brooklyn, New York",Brooklyn,Retail,-73.952417,1920,40.717689,3.279512244,0,1,1516
3,SQUARE_FOOT,4,3400,22100,RENT,"167 E 116th St, New York, New York",Manhattan,Multi-Family,-73.940689,1910,40.798542,3.655643827,0,3,9
5,SQUARE_FOOT,6,900,5996,RENT,"122 W 20th St, New York, New York",Manhattan,Multi-Family,-73.995295,1901,40.741354,1.256725347,0,2,2870
2,SQUARE_FOOT,4,800,3800,RENT,"477 Gates Ave, Brooklyn, New York",Brooklyn,Multi-Family,-73.947869,1931,40.686711,5.30434783,0,2,588
1,SQUARE_FOOT,1,1000,3200,RENT,"1755 Richmond Rd, Staten Island, New York",Staten Island,Retail,-74.103738,1985,40.587543,13.30530154,0,2,181
2,SQUARE_FOOT,2,4400,6930,RENT,"20 Ellis St, Staten Island, New York",Staten Island,Retail,-74.240923,2004,40.517343,21.3474541,0,2,63
1,SQUARE_FOOT,2,1000,2583,RENT,"14 Rockland Ave, Staten Island, New York",Staten Island,Retail,-74.127344,1931,40.576623,14.56822447,0,0,181
4,SQUARE_FOOT,6,900,9000,RENT,"318 E 9th St, New York, New York",Manhattan,Multi-Family,-73.986544,1910,40.728638,2.027650665,0,0,936
2,SQUARE_FOOT,3,900,2790,RENT,"1115 Dekalb Ave, Brooklyn, New York",Brooklyn,Retail,-73.93054,1950,40.6939,5.281489835,0,0,588
1,SQUARE_FOOT,1,2500,8333,RENT,"275 S 2nd St, Brooklyn, New York",Brooklyn,Industrial,-73.956551,1950,40.711473,3.553447048,0,3,1516
5,SQUARE_FOOT,5,2062,19761,RENT,"118 E 57th St, New York, New York",Manhattan,Office,-73.969895,1920,40.761049,0.846021159,0,1,3053
4,SQUARE_FOOT,6,3600,12000,RENT,"221-223 W 37th St, New York, New York",Manhattan,Office,-73.99019,1920,40.753505,0.393113381,0,1,5284
4,SQUARE_FOOT,14,8000,17333,RENT,"250 W 40th St, New York, New York",Manhattan,Office,-73.989884,1924,40.755335,0.291363482,0,2,3639
3,SQUARE_FOOT,3,780,3185,RENT,"200 W 138th St, New York, New York",Manhattan,Multi-Family,-73.942733,1910,40.81728,4.669662851,0,0,125
2,SQUARE_FOOT,14,2420,21982,RENT,"109 W 45th St, New York, New York",Manhattan,Hospitality,-73.983165,1900,40.757215,0.135053792,0,2,2008
3,SQUARE_FOOT,3,12168,25350,RENT,"2632-2640 Atlantic Ave, Brooklyn, New York",Brooklyn,Office,-73.896981,1920,40.675475,7.34860632,0,3,567
15,SQUARE_FOOT,33,126,1850,RENT,"75 Broad St, New York, New York",Manhattan,Coworking,-74.011281,1928,40.704756,3.91622266,0,3,1466
2,SQUARE_FOOT,2,1800,3000,RENT,"4214 Avenue D, Brooklyn, New York",Brooklyn,Retail,-73.936872,1933,40.6417,8.428642879,0,3,993
1,SQUARE_FOOT,12,14000,29167,RENT,"141 Flushing Ave, Brooklyn, New York",Brooklyn,,-73.971178,1942,40.698357,4.187294023,0,3,631
2,SQUARE_FOOT,5,3750,19988,RENT,"368 Broadway, New York, New York",Manhattan,Office,-74.003019,1920,40.717538,2.939903341,0,0,2126
7,SQUARE_FOOT,7,5600,35000,RENT,"100 S 4th St, Brooklyn, New York",Brooklyn,Multi-Family,-73.964108,1910,40.712067,3.364581116,0,1,223
2,SQUARE_FOOT,2,1400,4550,RENT,"9710 3rd Ave, Brooklyn, New York",Brooklyn,Retail,-74.034467,1925,40.615711,10.15820459,0,1,1284
1,SQUARE_FOOT,5,8450,27462,RENT,"30 E Broadway, New York, New York",Manhattan,Retail,-73.996604,1900,40.713724,3.111793182,0,3,1043
1,SQUARE_FOOT,3,12000,27000,RENT,"180 Maspeth Ave, Brooklyn, New York",Brooklyn,Industrial,-73.935447,2004,40.716848,3.866889052,0,1,468
4,SQUARE_FOOT,4,880,3499,RENT,"2376 Adam Clayton Powell Jr Blvd, New York, New York",Manhattan,Retail,-73.942291,1910,40.817841,4.714760683,0,1,125
4,SQUARE_FOOT,4,1625,6771,RENT,"137 Grand St, Brooklyn, New York",Brooklyn,Retail,-73.962211,2016,40.715028,3.208910435,0,0,1516
10,SQUARE_FOOT,15,1230,10762,RENT,"85 Livingston St, Brooklyn, New York",Brooklyn,Retail,-73.99059,1964,40.691681,4.588077062,0,2,1222
2,SQUARE_FOOT,3,1400,7467,RENT,"599 Vanderbilt Ave, Brooklyn, New York",Brooklyn,Retail,-73.96792,1924,40.679554,5.496381784,0,3,524
2,SQUARE_FOOT,6,500,3555,RENT,"8501-8511 4th Ave, Brooklyn, New York",Brooklyn,Multi-Family,-74.02771,1927,40.623177,9.572043846,0,1,1284
4,SQUARE_FOOT,12,11190,36368,RENT,"598 Broadway, New York, New York",Manhattan,Office,-73.996581,1901,40.724972,2.352348645,0,1,936
1,SQUARE_FOOT,1,1275,9031,RENT,"253 Grand St, Brooklyn, New York",Brooklyn,Retail,-73.958539,1920,40.713549,3.379445296,0,2,1516
3,SQUARE_FOOT,4,3600,39498,RENT,"275 CHURCH St, New York, New York",Manhattan,Retail,-74.004781,1910,40.718582,2.902146524,0,3,2126
1,SQUARE_FOOT,1,33212,41515,RENT,"572 Richmond Ter, Staten Island, New York",Staten Island,Industrial,-74.091352,1966,40.645433,9.54894638,0,0,452
1,SQUARE_FOOT,1,2500,3750,RENT,"1991 Pitkin Ave, Brooklyn, New York",Brooklyn,Industrial,-73.899311,1930,40.671341,7.49828279,0,1,567
4,SQUARE_FOOT,6,1900,8312,RENT,"400 Bedford Ave, Brooklyn, New York",Brooklyn,Multi-Family,-73.963948,2009,40.710661,3.459048383,0,2,223
1,SQUARE_FOOT,3,1200,4400,RENT,"176 Delancey St, New York, New York",Manhattan,Retail/Office,-73.984954,1920,40.717891,2.769691322,0,0,2600
11,SQUARE_FOOT,12,1000,2950,RENT,"143 W 29th St, New York, New York",Manhattan,Office,-73.991563,1912,40.747507,0.788913519,0,3,4971
11,SQUARE_FOOT,12,6850,25117,RENT,"236 W 26th St, New York, New York",Manhattan,Office,-73.995943,1925,40.746469,0.963488576,0,1,4971
1,SQUARE_FOOT,2,11500,22042,RENT,"813-817 Bergen St, Brooklyn, New York",Brooklyn,Industrial,-73.960596,1919,40.678576,5.639332736,0,1,708
7,SQUARE_FOOT,13,3614,33128,RENT,"112 W 72nd St, New York, New York",Manhattan,Multi-Family,-73.979315,1905,40.77734,1.377128692,0,3,1642
5,SQUARE_FOOT,5,1800,25000,RENT,"875 Tenth Ave, New York, New York",Manhattan,Multi-Family,-73.988734,1910,40.769388,0.806075501,0,0,2482
2,SQUARE_FOOT,5,2400,6400,RENT,"137 5th Ave, Brooklyn, New York",Brooklyn,Retail,-73.978851,2011,40.67841,5.508554535,0,1,729
7,SQUARE_FOOT,13,1300,4550,RENT,"2350 Broadway, New York, New York",Manhattan,Multi-Family,-73.98317,1903,40.72221,2.474225003,0,2,927
5,SQUARE_FOOT,5,400,1400,RENT,"183-227 Lorraine St, Brooklyn, New York",Brooklyn,Specialty,-74.002051,1923,40.673356,5.910169884,0,2,84
3,SQUARE_FOOT,3,1300,11917,RENT,"277-279 Bedford Ave, Brooklyn, New York",Brooklyn,Retail,-73.961318,1910,40.714226,3.278025648,0,3,1516
1,SQUARE_FOOT,3,7614,22208,RENT,"1407 Flatbush Ave, Brooklyn, New York",Brooklyn,Retail,-73.951176,1933,40.6364,8.590760576,0,0,757
1,SQUARE_FOOT,5,3500,17500,RENT,"34 Howard St, New York, New York",Manhattan,Office,-74.000732,1915,40.71985,2.751572858,0,2,1043
13,SQUARE_FOOT,19,920,5367,RENT,"444 E 75th St, New York, New York",Manhattan,Multi-Family,-73.952628,1963,40.768749,1.876477672,0,2,1349
7,SQUARE_FOOT,12,4635,16222,RENT,"241 W 37th St, New York, New York",Manhattan,Office,-73.990909,1913,40.753804,0.402401768,0,1,5284
4,SQUARE_FOOT,4,1100,8525,RENT,"130 Franklin St, Brooklyn, New York",Brooklyn,Retail,-73.957249,1930,40.729363,2.47016802,0,0,1516
4,SQUARE_FOOT,19,2400,9000,RENT,"820 Second Ave, New York, New York",Manhattan,Office,-73.971161,1964,40.75078,0.902056943,0,1,3525
1,SQUARE_FOOT,5,1046,9065,RENT,"218 W 14th St, New York, New York",Manhattan,Multi-Family,-74.000995,1915,40.738769,1.554065484,0,2,1655
3,SQUARE_FOOT,4,700,3450,RENT,"24 Irving Ave, Brooklyn, New York",Brooklyn,Multi-Family,-73.92534,1931,40.705049,4.827805493,0,0,664
2,SQUARE_FOOT,3,1800,4392,RENT,"666 Franklin Ave, Brooklyn, New York",Brooklyn,Retail,-73.956361,1930,40.675638,5.890609065,0,0,708
2,SQUARE_FOOT,2,1450,7008,RENT,"342 Canal St, New York, New York",Manhattan,Retail,-74.003575,1987,40.720312,2.768185421,0,3,2126
5,SQUARE_FOOT,7,2500,24950,RENT,"359 W Broadway, New York, New York",Manhattan,Multi-Family,-74.002888,1900,40.723022,2.580070037,0,3,2126
1,SQUARE_FOOT,2,18500,38542,RENT,"880-890 Dean St, Brooklyn, New York",Brooklyn,Industrial,-73.960771,1964,40.67839,5.649724458,0,0,708
2,SQUARE_FOOT,4,2452,14074,RENT,"1122 Bedford Ave, Brooklyn, New York",Brooklyn,Multi-Family,-73.954669,2009,40.686209,5.215435951,0,1,631
1,SQUARE_FOOT,2,1512,4499,RENT,"238 Franklin St, Brooklyn, New York",Brooklyn,Industrial,-73.95799,1931,40.734012,2.195758868,0,1,1516
1,SQUARE_FOOT,1,28100,52688,RENT,"179 Morgan Ave, Brooklyn, New York",Brooklyn,Industrial,-73.93418,1910,40.710291,4.252746293,0,1,468
5,SQUARE_FOOT,5,6500,26542,RENT,"21-23 Howard St, New York, New York",Manhattan,Office,-74.000503,1900,40.719271,2.786502567,0,2,1043
10,SQUARE_FOOT,12,46350,81112,RENT,"6400 Amboy Rd, Staten Island, New York",Staten Island,,-74.215208,1996,40.521883,20.27519461,0,1,63
6,SQUARE_FOOT,7,3600,18000,RENT,"316-318 E 22nd St, New York, New York",Manhattan,Multi-Family,-73.980533,2010,40.736673,1.494984822,0,3,2870
4,SQUARE_FOOT,6,950,7499,RENT,"402 E 78th St, New York, New York",Manhattan,Multi-Family,-73.952844,1910,40.771263,1.941914901,0,2,1349
1,SQUARE_FOOT,1,3485,21781,RENT,"513 W 207th St, New York, New York",Manhattan,Office,-73.9192,1941,40.865027,8.169831392,0,0,133
2,SQUARE_FOOT,5,1900,5500,RENT,"317 W 54th St, New York, New York",Manhattan,Multi-Family,-73.985272,1980,40.765414,0.514201721,0,2,2505
2,SQUARE_FOOT,11,1224,5304,RENT,"267 Fifth Ave, New York, New York",Manhattan,Office,-73.986484,1915,40.74531,0.876433658,0,1,5284
1,SQUARE_FOOT,4,700,2275,RENT,"4422 3rd Ave, Brooklyn, New York",Brooklyn,Retail,-74.011856,1935,40.650833,7.529996372,0,3,1693
1,SQUARE_FOOT,1,2500,7900,RENT,"279 Starr St, Brooklyn, New York",Brooklyn,Industrial,-73.921738,2002,40.706842,4.862218416,0,2,664
1,SQUARE_FOOT,1,7500,19375,RENT,"219-223 Eagle St, Brooklyn, New York",Brooklyn,Industrial,-73.951495,1931,40.735712,2.354234651,0,0,207
1,SQUARE_FOOT,7,2301,14381,RENT,"349-351 Kent Ave, Brooklyn, New York",Brooklyn,Multi-Family,-73.96755,2019,40.71271,3.266275642,0,0,223
4,SQUARE_FOOT,4,1372,5374,RENT,"300 Atlantic Ave, Brooklyn, New York",Brooklyn,Retail/Office,-73.988919,1900,40.688302,4.817170698,0,2,363
5,SQUARE_FOOT,6,50633,189874,RENT,"55 Chrystie St, New York, New York",Manhattan,Office,-73.995015,1900,40.716498,2.908357628,0,1,1043
4,SQUARE_FOOT,4,1200,2800,RENT,"417 Grand St, Brooklyn, New York",Brooklyn,Multi-Family,-73.9537,1900,40.7117,3.605805762,0,2,1516
7,SQUARE_FOOT,9,2500,13500,RENT,"13 E 16th St, New York, New York",Manhattan,Office,-73.991561,1910,40.737064,1.478738661,0,1,2870
1,SQUARE_FOOT,7,4550,20854,RENT,"223-227 Grand St, New York, New York",Manhattan,Retail,-73.995549,1920,40.71859,2.771187784,0,0,1043
4,SQUARE_FOOT,5,900,8400,RENT,"139 First Ave, New York, New York",Manhattan,Retail,-73.985345,1900,40.728051,2.067556634,0,1,936
1,SQUARE_FOOT,2,1800,2550,RENT,"4907 1st Ave, Brooklyn, New York",Brooklyn,Industrial,-74.018387,1906,40.650444,7.62623787,0,2,1693
1,SQUARE_FOOT,3,800,3000,RENT,"617 Lorimer St, Brooklyn, New York",Brooklyn,Office,-73.949723,1920,40.715317,3.493367556,0,1,468
1,SQUARE_FOOT,1,1500,3125,RENT,"3911 Amboy Rd, Staten Island, New York",Staten Island,Retail,-74.148851,2005,40.551908,16.61305343,0,1,181
1,SQUARE_FOOT,7,5085,25425,RENT,"127 W 24th St, New York, New York",Manhattan,Office,-73.993468,1897,40.744304,1.031634134,0,2,4971
3,SQUARE_FOOT,3,900,3525,RENT,"331 Graham Ave, Brooklyn, New York",Brooklyn,Retail/Office,-73.944669,1920,40.714205,3.704710404,0,1,468
4,SQUARE_FOOT,5,2000,7500,RENT,"511 W 20th St, New York, New York",Manhattan,Retail,-74.006125,1920,40.746244,1.348154305,0,1,1655
1,SQUARE_FOOT,1,10000,35000,RENT,"2494-2508 Flatbush Ave, Brooklyn, New York",Brooklyn,Retail,-73.922393,1985,40.609191,10.79932906,0,1,332
1,SQUARE_FOOT,1,5000,10000,RENT,"360 Scholes St, Brooklyn, New York",Brooklyn,Industrial,-73.933828,1920,40.709615,4.300619414,0,3,468
3,SQUARE_FOOT,3,3600,24000,RENT,"591-595 Manhattan Ave, Brooklyn, New York",Brooklyn,Retail,-73.950516,1931,40.722959,3.035713042,0,0,1516
1,SQUARE_FOOT,4,1000,5167,RENT,"180 Lexington Ave, New York, New York",Manhattan,Retail,-73.981225,1915,40.744667,0.946839533,0,2,3525
4,SQUARE_FOOT,4,2700,11025,RENT,"388 Third Ave, New York, New York",Manhattan,Office,-73.981213,1910,40.741891,1.134150164,0,1,3525
2,SQUARE_FOOT,2,7500,24375,RENT,"2246-2250 3rd Ave, New York, New York",Manhattan,Retail,-73.937561,1928,40.802065,3.947420266,0,2,83
1,SQUARE_FOOT,1,900,3500,RENT,"399 Avenue P, Brooklyn, New York",Brooklyn,Retail,-73.972756,1931,40.609036,10.31246903,0,0,968
1,SQUARE_FOOT,1,5025,10050,RENT,"3672 Nostrand Ave, Brooklyn, New York",Brooklyn,Retail,-73.94094,1963,40.59449,11.53498006,0,0,631
3,SQUARE_FOOT,3,2700,3591,RENT,"1203 Nostrand Ave, Brooklyn, New York",Brooklyn,Office,-73.950105,1931,40.657998,7.152745417,0,2,993
1,SQUARE_FOOT,1,20266,56576,RENT,"561 Johnson Ave, Brooklyn, New York",Brooklyn,Flex,-73.925146,1964,40.709407,4.610818967,0,1,588
1,SQUARE_FOOT,1,11360,11360,RENT,"1285 Broadway, Brooklyn, New York",Brooklyn,Retail,-73.924273,1995,40.691155,5.62207217,0,1,664
1,SQUARE_FOOT,2,3000,9642,RENT,"97 Green St, Brooklyn, New York",Brooklyn,Industrial,-73.957844,1931,40.73362,2.221236712,0,2,1516
1,SQUARE_FOOT,1,9000,18750,RENT,"126-136 Avenue T, Brooklyn, New York",Brooklyn,Industrial,-73.980325,1989,40.598264,11.03834469,0,3,968
1,SQUARE_FOOT,4,1075,2240,RENT,"150 Ocean Pkwy, Brooklyn, New York",Brooklyn,Office,-73.975825,2002,40.646493,7.719451919,0,1,757
3,SQUARE_FOOT,6,2850,17812,RENT,"177 Prince St, New York, New York",Manhattan,Multi-Family,-74.001812,1893,40.726445,2.339061093,0,2,936
1,SQUARE_FOOT,1,4400,11997,RENT,"4916 Arthur Kill Rd, Staten Island, New York",Staten Island,Retail,-74.239028,2010,40.522158,21.02613669,0,1,63
1,SQUARE_FOOT,2,2300,7393,RENT,"226 Franklin St, Brooklyn, New York",Brooklyn,Industrial,-73.9575,1901,40.733776,2.224920204,0,2,1516
3,SQUARE_FOOT,3,1750,13271,RENT,"113-115 N 7th St, Brooklyn, New York",Brooklyn,Retail,-73.959394,2000,40.719106,3.014340863,0,0,1516
3,SQUARE_FOOT,10,5000,15833,RENT,"526 Seventh Ave, New York, New York",Manhattan,Office,-73.988857,1924,40.753764,0.338722459,0,2,5284
2,SQUARE_FOOT,5,625,4032,RENT,"363 Malcolm X Blvd, New York, New York",Manhattan,Multi-Family,-73.944256,1910,40.810059,4.197128937,0,3,1745
1,SQUARE_FOOT,1,4800,8000,RENT,"5077 Arthur Kill Rd, Staten Island, New York",Staten Island,Industrial,-74.240899,2018,40.518936,21.26095072,0,1,63
1,SQUARE_FOOT,2,3000,3900,RENT,"502 Smith St, Brooklyn, New York",Brooklyn,Industrial,-73.998207,1931,40.673975,5.841598601,0,3,84
5,SQUARE_FOOT,8,9000,31845,RENT,"202 Centre St, New York, New York",Manhattan,Office,-73.998938,1912,40.718758,2.798893468,0,3,1043
8,SQUARE_FOOT,8,5530,19816,RENT,"477 Washington St, New York, New York",Manhattan,Multi-Family,-74.009721,1911,40.725248,2.591347154,0,1,2126
2,SQUARE_FOOT,4,2500,20833,RENT,"214 E 49th St, New York, New York",Manhattan,Multi-Family,-73.970668,1910,40.754705,0.810620059,0,0,2312
3,SQUARE_FOOT,4,1375,6531,RENT,"1025 Manhattan Ave, Brooklyn, New York",Brooklyn,Retail,-73.955049,1930,40.73399,2.300905393,0,1,1516
3,SQUARE_FOOT,3,1600,6933,RENT,"123 Smith St, Brooklyn, New York",Brooklyn,Retail,-73.989586,1930,40.687566,4.869383207,0,3,363
1,SQUARE_FOOT,3,1510,9438,RENT,"270 Broadway, Brooklyn, New York",Brooklyn,Multi-Family,-73.959093,1920,40.708604,3.681558265,0,1,1516
1,SQUARE_FOOT,3,2500,15000,RENT,"111 N 7th St, Brooklyn, New York",Brooklyn,Office,-73.95936,1999,40.71908,3.016749925,0,0,1516
1,SQUARE_FOOT,3,21387,97222,RENT,"1027-1035 Brighton Beach Ave, Brooklyn, New York",Brooklyn,Retail,-73.958428,1931,40.578458,12.4845553,0,2,1442
3,SQUARE_FOOT,9,5747,16762,RENT,"567 Ocean Pky, Brooklyn, New York",Brooklyn,Multi-Family,-73.97187,2021,40.634578,8.555931773,0,0,757
2,SQUARE_FOOT,3,4596,11000,RENT,"1882 Park Ave, New York, New York",Manhattan,Retail,-73.937848,2003,40.807253,4.22124822,0,3,83
1,SQUARE_FOOT,12,5230,18305,RENT,"8 W 36th St, New York, New York",Manhattan,Office,-73.98447,1910,40.749851,0.564094709,0,0,2449
4,SQUARE_FOOT,4,500,2500,RENT,"256 3rd Ave, Brooklyn, New York",Brooklyn,Multi-Family,-73.985912,1920,40.67822,5.510558903,0,2,729
2,SQUARE_FOOT,2,350,1625,RENT,"3914-3924 13th Ave, Brooklyn, New York",Brooklyn,Retail/Office,-73.986771,1931,40.640364,8.126380201,0,0,757
1,SQUARE_FOOT,1,6400,10667,RENT,"118 Battery Ave, Brooklyn, New York",Brooklyn,Office,-74.024417,2004,40.616555,9.98118049,0,3,1284
1,SQUARE_FOOT,3,1093,7560,RENT,"214 3rd Ave, New York, New York",Manhattan,Retail/Office,-73.985325,1901,40.736183,1.505706154,0,1,2000
1,SQUARE_FOOT,5,4600,17250,RENT,"27 Smith St, Brooklyn, New York",Brooklyn,Office,-73.987514,1940,40.690673,4.651250243,0,2,1875
1,SQUARE_FOOT,12,18706,99765,RENT,"30-34 Irving Pl, New York, New York",Manhattan,Office,-73.98775,1912,40.735003,1.59139367,0,2,2870
1,SQUARE_FOOT,5,600,3500,RENT,"29 Cook St, Brooklyn, New York",Brooklyn,Multi-Family,-73.94284,1973,40.7024,4.443353033,0,0,588
1,SQUARE_FOOT,2,14100,117500,RENT,"59-63 N 6th St, Brooklyn, New York",Brooklyn,Retail,-73.96146,2018,40.71951,2.941541673,0,1,1516
3,SQUARE_FOOT,6,500,1650,RENT,"315 Ocean Pkwy, Brooklyn, New York",Brooklyn,Multi-Family,-73.97301,1961,40.64168,8.061971699,0,2,757
2,SQUARE_FOOT,4,1010,18938,RENT,"143 Berry St, Brooklyn, New York",Brooklyn,Multi-Family,-73.959347,1910,40.718067,3.079571446,0,1,1516
2,SQUARE_FOOT,3,2000,25000,RENT,"683 8th Ave, New York, New York",Manhattan,Office,-73.989556,1929,40.758215,0.210702015,0,0,3639
1,SQUARE_FOOT,5,1600,13333,RENT,"83 Rivington St, New York, New York",Manhattan,Multi-Family,-73.989361,1900,40.720221,2.616180375,0,0,927
4,SQUARE_FOOT,14,3000,8500,RENT,"260 W 35th St, New York, New York",Manhattan,Office,-73.992569,1924,40.752537,0.525736673,0,3,4971
2,SQUARE_FOOT,3,900,6000,RENT,"347 Smith St, Brooklyn, New York",Brooklyn,Retail,-73.994886,1931,40.67997,5.411775476,0,3,1222
1,SQUARE_FOOT,3,900,2500,RENT,"7101 Narrows Ave, Brooklyn, New York",Brooklyn,Office,-74.034439,1925,40.635913,8.814048742,0,3,1284
2,SQUARE_FOOT,2,2738,3500,RENT,"2934 Gerritsen Ave, Brooklyn, New York",Brooklyn,Office,-73.921249,1920,40.589043,12.14860017,0,0,332
3,SQUARE_FOOT,4,7450,14900,RENT,"16 Waverly Ave, Brooklyn, New York",Brooklyn,Office,-73.968912,1935,40.697336,4.279269198,0,3,631
20,SQUARE_FOOT,32,1340,9499,RENT,"1-2 River Ter, New York, New York",Manhattan,Multi-Family,-74.016278,2009,40.715508,3.346422138,0,2,2126
2,SQUARE_FOOT,4,550,4850,RENT,"86 Greenpoint Ave, Brooklyn, New York",Brooklyn,Retail,-73.957298,1930,40.72974,2.44781865,0,0,1516
1,SQUARE_FOOT,1,9000,18750,RENT,"176 Flushing Ave, Brooklyn, New York",Brooklyn,Industrial,-73.969063,1949,40.69753,4.264539352,0,1,631
10,SQUARE_FOOT,12,990,4000,RENT,"593 Coney Island Ave, Brooklyn, New York",Brooklyn,Retail,-73.969514,No data,40.642878,7.996623952,0,1,757
3,SQUARE_FOOT,4,1500,12000,RENT,"179 Grand St, Brooklyn, New York",Brooklyn,Multi-Family,-73.960809,1899,40.714514,3.270144467,0,2,1516
10,SQUARE_FOOT,22,1835,9940,RENT,"28 W 44th St, New York, New York",Manhattan,Office,-73.981713,1919,40.754848,0.294693131,0,3,2449
8,SQUARE_FOOT,12,2500,7917,RENT,"327-335 W 36th St, New York, New York",Manhattan,Office,-73.993735,1924,40.75422,0.501146732,0,2,4971
3,SQUARE_FOOT,5,400,3000,RENT,"168 Ludlow St, New York, New York",Manhattan,Multi-Family,-73.987466,1900,40.72136,2.531837885,0,3,927
4,SQUARE_FOOT,4,900,3600,RENT,"15-19 Patchen Ave, Brooklyn, New York",Brooklyn,Multi-Family,-73.92757,1931,40.691563,5.501835954,0,2,664
4,SQUARE_FOOT,7,3000,29000,RENT,"216 W 102nd St, New York, New York",Manhattan,Multi-Family,-73.968655,1920,40.798192,2.915844972,0,2,1745
2,SQUARE_FOOT,2,1500,7250,RENT,"710-718 W 125th St, New York, New York",Manhattan,Retail,-73.960956,1914,40.818019,4.343469355,0,2,1745
1,SQUARE_FOOT,3,2000,4167,RENT,"1405 Coney Island Ave, Brooklyn, New York",Brooklyn,Retail,-73.96471,1931,40.62336,9.364805592,0,2,968
1,SQUARE_FOOT,2,2891,7468,RENT,"337-341 Sand Ln, Staten Island, New York",Staten Island,Retail,-74.06758,2000,40.591863,12.25590767,0,2,181
1,SQUARE_FOOT,2,500,1833,RENT,"813 Quentin Rd, Brooklyn, New York",Brooklyn,Office,-73.964205,1990,40.607804,10.43586535,0,3,968
1,SQUARE_FOOT,1,6050,21175,RENT,"1368 Forest Ave, Staten Island, New York",Staten Island,Retail,-74.134937,1963,40.625283,12.05444546,0,2,74
11,SQUARE_FOOT,24,1700,3649,RENT,"545 Eighth Ave, New York, New York",Manhattan,Office,-73.992176,1927,40.754481,0.422850382,0,0,4971
3,SQUARE_FOOT,6,500,7000,RENT,"259-263 Bleecker St, New York, New York",Manhattan,Multi-Family,-74.002855,1920,40.731351,2.050642476,0,3,936
1,SQUARE_FOOT,1,3600,14100,RENT,"2391 Richmond Ave, Staten Island, New York",Staten Island,Retail,-74.166051,1975,40.589227,15.01385802,0,2,63
3,SQUARE_FOOT,3,5700,16625,RENT,"160 Van Brunt St, Brooklyn, New York",Brooklyn,Office,-74.006722,1920,40.683186,5.285087501,0,0,84
1,SQUARE_FOOT,2,1500,3000,RENT,"15-17 Wyckoff Ave, Brooklyn, New York",Brooklyn,Industrial,-73.922887,1931,40.70682,4.822199549,0,3,664
3,SQUARE_FOOT,3,1260,2268,RENT,"78 Hart Blvd, Staten Island, New York",Staten Island,Health Care,-74.101198,1935,40.633651,10.5116343,0,3,74
2,SQUARE_FOOT,3,4195,13375,RENT,"314 Dean St, Brooklyn, New York",Brooklyn,Office,-73.98127,1930,40.683756,5.132902333,0,2,524
5,SQUARE_FOOT,6,1200,5200,RENT,"298 W 149th St, New York, New York",Manhattan,Multi-Family,-73.939867,1920,40.825148,5.220129968,0,0,189
6,SQUARE_FOOT,6,500,4995,RENT,"119 Christopher St, New York, New York",Manhattan,Multi-Family,-74.005608,1910,40.733381,1.99767917,0,3,1655
1,SQUARE_FOOT,2,4000,11667,RENT,"457 Carroll St, Brooklyn, New York",Brooklyn,Office,-73.987016,1931,40.677506,5.560393028,0,3,729
1,SQUARE_FOOT,2,5500,7998,RENT,"2478 McDonald Ave, Brooklyn, New York",Brooklyn,Industrial,-73.974363,1950,40.591556,11.51335112,0,0,631
2,SQUARE_FOOT,7,1100,3667,RENT,"2175 Bergen St, Brooklyn, New York",Brooklyn,Multi-Family,-73.908136,2020,40.673936,7.081564348,0,2,567
2,SQUARE_FOOT,2,1550,3358,RENT,"1550 Richmond Ave, Staten Island, New York",Staten Island,Office,-74.160582,1996,40.610303,13.71908379,0,1,63
5,SQUARE_FOOT,14,5500,20625,RENT,"305 Broadway, New York, New York",Manhattan,Office,-74.005484,1894,40.715437,3.118988814,0,0,2126
8,SQUARE_FOOT,18,1566,5872,RENT,"150 W 28th St, New York, New York",Manhattan,Office,-73.992801,1927,40.746759,0.863047289,0,2,4971
6,SQUARE_FOOT,6,300,2500,RENT,"150 Allen St, New York, New York",Manhattan,Retail,-73.989248,1900,40.720556,2.592652989,0,2,927
3,SQUARE_FOOT,3,800,2000,RENT,"153 4th Ave, Brooklyn, New York",Brooklyn,Retail,-73.981585,1920,40.679049,5.457183327,0,2,729
2,SQUARE_FOOT,8,7302,32250,RENT,"110 Lafayette St, New York, New York",Manhattan,Office,-74.001083,1908,40.718106,2.872295289,0,0,1043
1,SQUARE_FOOT,5,17156,50038,RENT,"640-644 Parkside Ave, Brooklyn, New York",Brooklyn,Industrial,-73.952132,1931,40.655905,7.266211786,0,3,993
1,SQUARE_FOOT,2,3211,6101,RENT,"603 Bergen St, Brooklyn, New York",Brooklyn,Office,-73.969641,1930,40.679874,5.460117237,0,3,524
5,SQUARE_FOOT,6,2288,12393,RENT,"570 Nostrand Ave, Brooklyn, New York",Brooklyn,Multi-Family,-73.949817,2020,40.679122,5.760471319,0,1,708
2,SQUARE_FOOT,3,550,4125,RENT,"644 Lorimer St, Brooklyn, New York",Brooklyn,Multi-Family,-73.949461,1928,40.716294,3.444101393,0,2,468
1,SQUARE_FOOT,3,1000,3500,RENT,"329 Nostrand Ave, Brooklyn, New York",Brooklyn,Retail,-73.950665,1925,40.687144,5.223612659,0,0,631
1,SQUARE_FOOT,1,4000,10000,RENT,"1800 Bath Ave, Brooklyn, New York",Brooklyn,Retail,-74.00615,1920,40.603632,10.71859045,0,1,1284
4,SQUARE_FOOT,5,14100,41125,RENT,"1989-2003 Coney Island Ave, Brooklyn, New York",Brooklyn,Retail,-73.961761,2020,40.608441,10.40666151,0,2,968
2,SQUARE_FOOT,3,250,2500,RENT,"1 E 19th St, Brooklyn, New York",Brooklyn,Multi-Family,-73.961979,1931,40.649672,7.584107974,0,1,961
1,SQUARE_FOOT,3,940,3000,RENT,"119 Union St, Brooklyn, New York",Brooklyn,Retail,-74.003285,2002,40.684683,5.148498388,0,3,1222
3,SQUARE_FOOT,4,2650,3366,RENT,"130 Palmetto St, Brooklyn, New York",Brooklyn,Industrial,-73.917514,1976,40.692687,5.747817312,0,1,664
2,SQUARE_FOOT,2,1500,5000,RENT,"6118 18th Ave, Brooklyn, New York",Brooklyn,Retail,-73.988409,2010,40.62118,9.452806519,0,0,968
2,SQUARE_FOOT,4,1350,4650,RENT,"1046 Rogers Ave, Brooklyn, New York",Brooklyn,Multi-Family,-73.951979,1926,40.64456,8.03100769,0,0,993
2,SQUARE_FOOT,4,600,3000,RENT,"625 Marlborough Rd, Brooklyn, New York",Brooklyn,Multi-Family,-73.962943,1931,40.634777,8.594083499,0,1,757
8,SQUARE_FOOT,12,7600,22167,RENT,"635 4th Ave, Brooklyn, New York",Brooklyn,Multi-Family,-73.993978,2018,40.663857,6.517903544,0,0,1091
1,SQUARE_FOOT,2,1800,5000,RENT,"1302 Avenue J, Brooklyn, New York",Brooklyn,Retail,-73.962992,1927,40.624783,9.278191657,0,3,757
3,SQUARE_FOOT,5,10000,32500,RENT,"331 Knickerbocker Ave, Brooklyn, New York",Brooklyn,Office,-73.922402,2009,40.701322,5.123608715,0,3,664
1,SQUARE_FOOT,2,3240,8100,RENT,"1829 Coney Island Ave, Brooklyn, New York",Brooklyn,Retail/Office,-73.962649,1931,40.612881,10.09652249,0,3,968
4,SQUARE_FOOT,4,1200,25008,RENT,"1374 Third Ave, New York, New York",Manhattan,Multi-Family,-73.958043,1920,40.773821,1.808216484,0,1,1349
5,SQUARE_FOOT,5,3400,9917,RENT,"1202 Kings Hwy, Brooklyn, New York",Brooklyn,Retail,-73.960749,1925,40.607495,10.47799948,0,0,968
1,SQUARE_FOOT,6,800,7000,RENT,"128-130 Thompson St, New York, New York",Manhattan,Multi-Family,-74.001135,1900,40.726337,2.333380392,0,3,936
5,SQUARE_FOOT,6,1530,7999,RENT,"227-229 E 58th St, New York, New York",Manhattan,Office,-73.965663,1918,40.760469,1.054585828,0,3,3053
7,SQUARE_FOOT,12,3700,10483,RENT,"28 W 27th St, New York, New York",Manhattan,Office,-73.989871,1901,40.744813,0.937182968,0,3,4971
11,SQUARE_FOOT,14,800,6000,RENT,"425 E 61st St, New York, New York",Manhattan,Office,-73.959265,1974,40.760513,1.386388374,0,2,78
2,SQUARE_FOOT,6,1781,5499,RENT,"401 Rutland Rd, Brooklyn, New York",Brooklyn,Multi-Family,-73.947434,2020,40.659635,7.081718383,0,0,993
8,SQUARE_FOOT,16,1681,6864,RENT,"22 E 17th St, New York, New York",Manhattan,Office,-73.99109,1896,40.73733,1.45566902,0,2,2870
1,SQUARE_FOOT,1,4750,9104,RENT,"370-372 S 3rd St, Brooklyn, New York",Brooklyn,Industrial,-73.952533,1930,40.708667,3.820128087,0,1,468
8,SQUARE_FOOT,17,700,3750,RENT,"311 E 72nd St, New York, New York",Manhattan,Multi-Family,-73.957594,1929,40.768778,1.642072813,0,3,1349
2,SQUARE_FOOT,3,900,3975,RENT,"685 Manhattan Ave, Brooklyn, New York",Brooklyn,Retail,-73.951657,1931,40.725007,2.887092043,0,1,1516
20,SQUARE_FOOT,22,8280,48300,RENT,"545 W 25th St, New York, New York",Manhattan,Office,-74.004972,2007,40.749946,1.158390176,0,2,1655
2,SQUARE_FOOT,6,2855,14037,RENT,"888 Lorimer St, Brooklyn, New York",Brooklyn,Office,-73.95126,2019,40.72304,3.007853326,0,3,1516
3,SQUARE_FOOT,3,350,1983,RENT,"307 82nd St, Brooklyn, New York",Brooklyn,Retail/Office,-74.029421,1931,40.626396,9.377334002,0,2,1284
2,SQUARE_FOOT,3,1300,5525,RENT,"8404 5th Ave, Brooklyn, New York",Brooklyn,Retail,-74.025552,1921,40.622797,9.572203271,0,2,1284
1,SQUARE_FOOT,2,12500,15625,RENT,"57 Ellis St, Staten Island, New York",Staten Island,Industrial,-74.242335,2004,40.517498,21.38563592,0,0,63
5,SQUARE_FOOT,5,2835,16998,RENT,"356 Broadway, New York, New York",Manhattan,Multi-Family,-74.003498,1915,40.717065,2.978798165,0,3,2126
2,SQUARE_FOOT,3,1500,3500,RENT,"393 Manhattan Ave, Brooklyn, New York",Brooklyn,Retail,-73.946963,1928,40.717987,3.422403084,0,0,468
1,SQUARE_FOOT,3,2450,6682,RENT,"1193 Atlantic Ave, Brooklyn, New York",Brooklyn,Office,-73.951497,1910,40.678845,5.750696268,0,3,708
3,SQUARE_FOOT,4,900,3225,RENT,"185 Malcolm X Blvd, Brooklyn, New York",Brooklyn,Retail,-73.929686,1931,40.68683,5.720006016,0,1,588
2,SQUARE_FOOT,11,9142,27426,RENT,"64-66 W Third St, New York, New York",Manhattan,Multi-Family,-73.998198,1982,40.729259,2.091745686,0,1,936
2,SQUARE_FOOT,7,3500,14000,RENT,"579 Broadway, New York, New York",Manhattan,Retail,-73.99787,2016,40.72485,2.377939726,0,0,936
2,SQUARE_FOOT,5,1600,8900,RENT,"104 W 83rd St, New York, New York",Manhattan,Multi-Family,-73.97424,1900,40.78456,1.929732193,0,3,1642
1,SQUARE_FOOT,24,700,5200,RENT,"211 E 43rd St, New York, New York",Manhattan,Retail/Office,-73.973021,1928,40.751411,0.796980667,0,0,2150
5,SQUARE_FOOT,10,17500,87500,RENT,"153-365 S 5th St, Brooklyn, New York",Brooklyn,Multi-Family,-73.962287,2011,40.711495,3.434496059,0,1,1516
3,SQUARE_FOOT,3,2000,5500,RENT,"307 Troy Ave, Brooklyn, New York",Brooklyn,Multi-Family,-73.936508,1925,40.668009,6.72561675,0,3,567
3,SQUARE_FOOT,10,950,7125,RENT,"117 E 77th St, New York, New York",Manhattan,Multi-Family,-73.960223,1929,40.773986,1.726098176,0,3,1349
1,SQUARE_FOOT,3,560,3500,RENT,"493 Court St, Brooklyn, New York",Brooklyn,Retail,-73.998784,1931,40.675979,5.707643454,0,1,84
2,SQUARE_FOOT,5,1100,4492,RENT,"40 8th Ave, Brooklyn, New York",Brooklyn,Office,-73.972513,1899,40.674489,5.808530985,0,0,708
1,SQUARE_FOOT,2,1600,4667,RENT,"594 Pacific St, Brooklyn, New York",Brooklyn,Office,-73.977363,1950,40.682908,5.204271732,0,2,524
2,SQUARE_FOOT,2,4500,15000,RENT,"736-738 Manhattan Ave, Brooklyn, New York",Brooklyn,Retail,-73.951947,1931,40.726405,2.801943758,0,2,1516
1,SQUARE_FOOT,1,13300,35467,RENT,"96-100 Huntington St, Brooklyn, New York",Brooklyn,Industrial,-74.002472,1962,40.676606,5.69151598,0,0,84
1,SQUARE_FOOT,6,2000,5333,RENT,"2301 Ocean Ave, Brooklyn, New York",Brooklyn,Multi-Family,-73.952176,1941,40.605372,10.6878031,0,1,968
1,SQUARE_FOOT,1,4000,10667,RENT,"286-294 Hamilton Ave, Brooklyn, New York",Brooklyn,Industrial,-74.00195,1931,40.676103,5.721679875,0,3,84
28,SQUARE_FOOT,34,24211,90791,RENT,"1295 5th Ave, New York, New York",Manhattan,Multi-Family,-73.94847,1974,40.796774,3.308916909,0,1,1745
6,SQUARE_FOOT,6,17465,80048,RENT,"163 W 23rd St, New York, New York",Manhattan,Office,-73.994896,1931,40.744107,1.075995996,0,3,4971
2,SQUARE_FOOT,2,900,2400,RENT,"69 Stratford Rd, Brooklyn, New York",Brooklyn,Retail,-73.969216,1930,40.647227,7.699577287,0,2,757
1,SQUARE_FOOT,1,40000,73333,RENT,"501 Industry Rd, Staten Island, New York",Staten Island,Industrial,-74.190646,1976,40.603302,15.15598849,0,3,63
1,SQUARE_FOOT,5,1046,4950,RENT,"200 W 123rd St, New York, New York",Manhattan,Retail/Office,-73.949701,1910,40.807701,3.914144446,0,1,2750
1,SQUARE_FOOT,1,8500,17000,RENT,"378 Troutman St, Brooklyn, New York",Brooklyn,Flex,-73.92338,1950,40.705706,4.861596726,0,3,664
5,SQUARE_FOOT,9,1100,7517,RENT,"111 E 75th St, New York, New York",Manhattan,Multi-Family,-73.961393,1925,40.77282,1.627631797,0,1,1349
2,SQUARE_FOOT,3,15479,96744,RENT,"61 N 11th St, Brooklyn, New York",Brooklyn,Office,-73.958323,1969,40.722204,2.852880157,0,0,1516
4,SQUARE_FOOT,4,700,6295,RENT,"57 Seventh Ave S, New York, New York",Manhattan,Retail,-74.003689,1960,40.731661,2.05129785,0,1,936
3,SQUARE_FOOT,4,19800,66000,RENT,"774 Broadway, Brooklyn, New York",Brooklyn,Retail,-73.941068,1926,40.699915,4.638441013,0,3,588
4,SQUARE_FOOT,4,820,3000,RENT,"247 E 35th St, New York, New York",Manhattan,Office,-73.975753,1910,40.745742,0.988390386,0,1,3525
1,SQUARE_FOOT,3,3000,6000,RENT,"2829 Ocean Pky, Brooklyn, New York",Brooklyn,Retail,-73.966872,2000,40.580749,12.28415937,0,1,1442
1,SQUARE_FOOT,1,1000,5000,RENT,"1283 Prospect Ave, Brooklyn, New York",Brooklyn,Retail,-73.97562,1931,40.65188,7.348846851,0,3,961
2,SQUARE_FOOT,2,200,650,RENT,"1682 Victory Blvd, Staten Island, New York",Staten Island,Retail,-74.119588,1931,40.613088,12.22858766,0,0,74
2,SQUARE_FOOT,4,2000,32500,RENT,"240 Columbus Ave, New York, New York",Manhattan,Multi-Family,-73.979345,1969,40.776984,1.352865593,0,2,1642
1,SQUARE_FOOT,1,5000,10417,RENT,"231 Starr St, Brooklyn, New York",Brooklyn,Industrial,-73.922991,1950,40.705604,4.88047959,0,2,664
1,SQUARE_FOOT,5,1200,4200,RENT,"206 W 23rd St, New York, New York",Manhattan,Retail,-73.996235,1920,40.744122,1.108746541,0,1,2600
1,SQUARE_FOOT,3,1500,13750,RENT,"69 N 7th St, Brooklyn, New York",Brooklyn,Retail,-73.960929,1910,40.720007,2.922700334,0,0,1516
2,SQUARE_FOOT,6,1200,12000,RENT,"746 10th Ave, New York, New York",Manhattan,Multi-Family,-73.991186,1900,40.765047,0.570967531,0,3,2505
1,SQUARE_FOOT,1,850,4250,RENT,"400 Rogers Ave, Brooklyn, New York",Brooklyn,Retail,-73.954128,1924,40.663152,6.755057362,0,2,961
1,SQUARE_FOOT,4,1800,14250,RENT,"226 7th Ave, Brooklyn, New York",Brooklyn,Retail,-73.979063,1920,40.670272,6.069173636,0,3,1091
1,SQUARE_FOOT,2,6000,15000,RENT,"600 Degraw St, Brooklyn, New York",Brooklyn,Industrial,-73.984176,1931,40.679218,5.442040295,0,3,729
3,SQUARE_FOOT,3,1987,2798,RENT,"6801 4th Ave, Brooklyn, New York",Brooklyn,Retail,-74.022995,1930,40.635095,8.713915679,0,0,1693
6,SQUARE_FOOT,6,1368,14421,RENT,"2669-2675 Broadway, New York, New York",Manhattan,Multi-Family,-73.969451,1920,40.798501,2.923934736,0,1,1745
1,SQUARE_FOOT,5,9000,24000,RENT,"6 Saint Marks Pl, New York, New York",Manhattan,Retail,-73.989604,1900,40.729109,2.005729745,0,3,936
2,SQUARE_FOOT,3,2150,3960,RENT,"241 Rockaway Ave, Brooklyn, New York",Brooklyn,Retail,-73.91091,1901,40.67436,6.975127758,0,1,567
1,SQUARE_FOOT,5,800,13495,RENT,"61 Grove St, New York, New York",Manhattan,Multi-Family,-74.003309,1900,40.733343,1.939414775,0,2,1655
4,SQUARE_FOOT,4,800,2600,RENT,"673 Meeker Ave, Brooklyn, New York",Brooklyn,Multi-Family,-73.940485,2001,40.722917,3.380999527,0,0,468
16,SQUARE_FOOT,17,1482,5054,RENT,"325 W 38th St, New York, New York",Manhattan,Office,-73.992726,1929,40.75541,0.415629608,0,0,3639
1,SQUARE_FOOT,1,4000,13333,RENT,"353 Hamilton Ave, Brooklyn, New York",Brooklyn,Retail,-73.99954,1931,40.6739,5.855076763,0,0,84
1,SQUARE_FOOT,1,2300,11308,RENT,"1212 Victory Blvd, Staten Island, New York",Staten Island,Retail,-74.104167,1954,40.615799,11.62435652,0,3,74
1,SQUARE_FOOT,12,10000,41667,RENT,"1590 E 19th St, Brooklyn, New York",Brooklyn,Multi-Family,-73.955009,2020,40.611045,10.27715351,0,2,968
2,SQUARE_FOOT,2,13400,31122,RENT,"1601-1625 Gravesend Neck Rd, Brooklyn, New York",Brooklyn,Retail,-73.954382,1930,40.595396,11.35117047,0,0,631
1,SQUARE_FOOT,3,2289,5999,RENT,"589 Flatbush Ave, Brooklyn, New York",Brooklyn,Retail,-73.960335,1925,40.659135,6.955622173,0,1,961
1,SQUARE_FOOT,3,2400,12000,RENT,"362 Graham Ave, Brooklyn, New York",Brooklyn,Retail,-73.944285,1920,40.715079,3.667377809,0,2,468
4,SQUARE_FOOT,7,23178,292275,RENT,"131 Eighth Ave, New York, New York",Manhattan,Multi-Family,-74.001724,1910,40.741446,1.421829631,0,3,1655
8,SQUARE_FOOT,8,225,999,RENT,"6 E 116th St, New York, New York",Manhattan,Multi-Family,-73.946027,2007,40.800181,3.574694839,0,1,1745
1,SQUARE_FOOT,2,950,3958,RENT,"262 Halsey St, Brooklyn, New York",Brooklyn,Retail,-73.943291,1910,40.682426,5.669474908,0,0,588
1,SQUARE_FOOT,2,2375,8750,RENT,"201 Franklin St, Brooklyn, New York",Brooklyn,Industrial,-73.958386,1931,40.733696,2.198812768,0,1,1516
3,SQUARE_FOOT,3,250,1750,RENT,"131 Pioneer St, Brooklyn, New York",Brooklyn,Retail/Office,-74.011068,1921,40.678754,5.634482674,0,2,84
2,SQUARE_FOOT,6,2600,11700,RENT,"535 Grand St, Brooklyn, New York",Brooklyn,Retail,-73.949956,1920,40.711227,3.728792266,0,0,468
7,SQUARE_FOOT,14,3600,10200,RENT,"237 W 37th St, New York, New York",Manhattan,Office,-73.990716,1922,40.753712,0.400073786,0,2,5284
1,SQUARE_FOOT,1,10000,12708,RENT,"774-806 Alabama Ave, Brooklyn, New York",Brooklyn,Industrial,-73.892852,1969,40.656792,8.511395976,0,1,567
1,SQUARE_FOOT,4,2000,9917,RENT,"121 Orchard St, New York, New York",Manhattan,Multi-Family,-73.989794,1900,40.719509,2.667029776,0,2,927
1,SQUARE_FOOT,3,2200,5500,RENT,"1427 Dekalb Ave, Brooklyn, New York",Brooklyn,Retail,-73.923367,1931,40.700304,5.145444389,0,0,664
1,SQUARE_FOOT,2,3670,13499,RENT,"100 Sutton St, Brooklyn, New York",Brooklyn,Flex,-73.940574,1931,40.726606,3.199853494,0,3,468
1,SQUARE_FOOT,1,12500,44792,RENT,"374 Troutman St, Brooklyn, New York",Brooklyn,Industrial,-73.923356,1950,40.705749,4.860231113,0,1,664
3,SQUARE_FOOT,3,1900,6017,RENT,"323 Columbia St, Brooklyn, New York",Brooklyn,Retail/Office,-74.004409,1931,40.681148,5.399377752,0,2,84
1,SQUARE_FOOT,1,2500,10000,RENT,"379 Troutman St, Brooklyn, New York",Brooklyn,Industrial,-73.923826,1950,40.70596,4.832926335,0,2,664
11,SQUARE_FOOT,12,16750,52344,RENT,"134 W 29th St, New York, New York",Manhattan,Office,-73.99183,1910,40.747159,0.816545291,0,3,4971
2,SQUARE_FOOT,3,3670,19879,RENT,"51-55 Nassau Ave, Brooklyn, New York",Brooklyn,Office,-73.952331,1931,40.723474,2.950457032,0,0,1516
2,SQUARE_FOOT,2,3092,33334,RENT,"148 E 40th St, New York, New York",Manhattan,Retail/Office,-73.976165,1920,40.749644,0.756450221,0,3,3525
1,SQUARE_FOOT,1,25000,37500,RENT,"2737 W 23rd St, Brooklyn, New York",Brooklyn,Industrial,-73.990207,1950,40.579196,12.35485019,0,3,1442
1,SQUARE_FOOT,2,7260,15125,RENT,"400 3rd Ave, Brooklyn, New York",Brooklyn,Retail/Office,-73.989533,1929,40.673557,5.836449989,0,3,729
1,SQUARE_FOOT,2,2000,6000,RENT,"1966 Atlantic Ave, Brooklyn, New York",Brooklyn,Industrial,-73.923052,2022,40.676709,6.498989952,0,0,567
1,SQUARE_FOOT,2,8573,28577,RENT,"1329 Willoughby Ave, Brooklyn, New York",Brooklyn,Industrial,-73.920963,1956,40.706445,4.91004586,0,1,664
15,SQUARE_FOOT,33,1750,21875,RENT,"1299-1311 Second Ave, New York, New York",Manhattan,Multi-Family,-73.960764,1962,40.766832,1.433893637,0,0,1349
2,SQUARE_FOOT,3,1316,3605,RENT,"402 Hooper St, Brooklyn, New York",Brooklyn,Retail,-73.951933,1910,40.710161,3.743018377,0,1,468
2,SQUARE_FOOT,2,1900,7000,RENT,"260 Flatbush Ave, Brooklyn, New York",Brooklyn,Retail,-73.97425,1921,40.679226,5.473059275,0,2,524
3,SQUARE_FOOT,4,2200,6967,RENT,"227 Knickerbocker Ave, Brooklyn, New York",Brooklyn,Retail,-73.925712,1931,40.703173,4.914302248,0,1,664
14,SQUARE_FOOT,23,774,4838,RENT,"462-468 Seventh Ave, New York, New York",Manhattan,Office,-73.990266,1925,40.752002,0.48105759,0,2,5284
3,SQUARE_FOOT,4,1800,6000,RENT,"664 Manhattan Ave, Brooklyn, New York",Brooklyn,Retail,-73.951036,1928,40.724716,2.922962298,0,0,1516
2,SQUARE_FOOT,4,700,2800,RENT,"324 E 30th St, New York, New York",Manhattan,Multi-Family,-73.976683,1910,40.74162,1.221456968,0,0,3525
1,SQUARE_FOOT,2,21917,63925,RENT,"15 Bay Ridge Ave, Brooklyn, New York",Brooklyn,Office,-74.035022,1966,40.638727,8.637294981,0,3,1284
19,SQUARE_FOOT,29,7668,134190,RENT,"2025 Broadway, New York, New York",Manhattan,Multi-Family,-73.98266,1977,40.776837,1.311961341,0,1,2482
1,SQUARE_FOOT,1,6799,39661,RENT,"1721 Avenue U, Brooklyn, New York",Brooklyn,Retail,-73.954244,2008,40.599244,11.08919019,0,1,968
3,SQUARE_FOOT,5,7600,28500,RENT,"217 Havemeyer St, Brooklyn, New York",Brooklyn,Office,-73.958702,1931,40.709308,3.644376409,0,3,1516
2,SQUARE_FOOT,6,629,2778,RENT,"664-676 Flatbush Ave, Brooklyn, New York",Brooklyn,Multi-Family,-73.960508,1928,40.656875,7.107323262,0,0,961
4,SQUARE_FOOT,4,545,2498,RENT,"247 Johnson Ave, Brooklyn, New York",Brooklyn,Multi-Family,-73.939449,1920,40.70712,4.262660635,0,3,588
1,SQUARE_FOOT,2,1750,7000,RENT,"1222 Myrtle Ave, Brooklyn, New York",Brooklyn,Multi-Family,-73.92935,1930,40.69749,5.110941741,0,2,588
2,SQUARE_FOOT,3,880,4400,RENT,"651 Hancock St, Brooklyn, New York",Brooklyn,Multi-Family,-73.92925,1910,40.68504,5.838148589,0,3,567
5,SQUARE_FOOT,5,15000,50000,RENT,"13 Grattan St, Brooklyn, New York",Brooklyn,Office,-73.93277,2018,40.70562,4.551879293,0,3,588
5,SQUARE_FOOT,9,1085,4750,RENT,"1247 Atlantic Ave, Brooklyn, New York",Brooklyn,Multi-Family,-73.949245,2019,40.678708,5.797286964,0,2,708
2,SQUARE_FOOT,4,2038,6189,RENT,"111-119 Ingraham St, Brooklyn, New York",Brooklyn,Industrial,-73.929227,1981,40.70783,4.549440824,0,1,588
2,SQUARE_FOOT,4,1000,8000,RENT,"345 First Ave, New York, New York",Manhattan,Retail,-73.980042,1910,40.735211,1.598960001,0,3,2870
3,SQUARE_FOOT,3,350,1500,RENT,"199 Cook St, Brooklyn, New York",Brooklyn,Industrial,-73.934879,1930,40.703412,4.609645568,0,1,588
